stop_id,stop_code,platform_code,stop_name,stop_desc,stop_lat,stop_lon,zone_id,stop_url,location_type,parent_station,stop_timezone,position,direction,wheelchair_boarding,tts_stop_name
2528831,89998,,Vintage High School,,38.33056,-122.30583,,http://ridethevine.rideralerts.com/InfoPoint/99998,0,,America/Los_Angeles,,,0,
2528839,893221,,Main St at Central Ave,,38.312322,-122.294167,,http://ridethevine.rideralerts.com/InfoPoint/893221,0,,America/Los_Angeles,,,0,
2528840,893220,,Old Sonoma Rd at S Seymour St,,38.287815278447596,-122.29784378536488,,http://ridethevine.rideralerts.com/InfoPoint/893220,0,,America/Los_Angeles,,,0,
2528841,893218,,2nd St at California Blvd,,38.297090834390104,-122.29971323337604,,http://ridethevine.rideralerts.com/InfoPoint/893218,0,,America/Los_Angeles,,,0,
2528845,893219,,Old Sonoma Rd at Underhill Dr NE,,38.28785225662347,-122.30359574101877,,http://ridethevine.rideralerts.com/InfoPoint/893219,0,,America/Los_Angeles,,,0,
2528848,893184,,Coombs St at S Franklin St,,38.28361111,-122.2883333,,http://ridethevine.rideralerts.com/InfoPoint/893184,0,,America/Los_Angeles,,,0,
2528849,893183,,Pine St at Adams St,,38.29111111,-122.2894444,,http://ridethevine.rideralerts.com/InfoPoint/893183,0,,America/Los_Angeles,,,0,
2528851,893172,,Browns Valley Rd at Robinson Ln,,38.302520377994966,-122.31723421525595,,http://ridethevine.rideralerts.com/InfoPoint/893172,0,,America/Los_Angeles,,,0,
2528852,893173,,Browns Valley Rd at Hudson Ln,,38.3018046813699,-122.31508524989897,,http://ridethevine.rideralerts.com/InfoPoint/893173,0,,America/Los_Angeles,,,0,
2528854,890921,,Trancas St at Beard Rd (SE),,38.3232953312133,-122.2966492283727,,http://ridethevine.rideralerts.com/InfoPoint/890921,0,,America/Los_Angeles,,,0,
2528855,890851,,Lincoln Ave at Soscol Ave,,38.3102777777778,-122.283333333333,,http://ridethevine.rideralerts.com/InfoPoint/890851,0,,America/Los_Angeles,,,0,
2528881,89090,,Pear Tree Ln at Villa Ln,,38.321137,-122.29269,,http://ridethevine.rideralerts.com/InfoPoint/89090,0,,America/Los_Angeles,,,0,
2528896,89158,,Jefferson St at El Capitan Way South,,38.32676,-122.30341,,http://ridethevine.rideralerts.com/InfoPoint/89158,0,,America/Los_Angeles,,,0,
2528897,89157,,Jefferson St at Sierra Ave (NW),,38.32893162419677,-122.30509474278239,,http://ridethevine.rideralerts.com/InfoPoint/89157,0,,America/Los_Angeles,,,0,
2528898,89155,,Jefferson St at Maximillian Ct,,38.3355555555556,-122.309722222222,,http://ridethevine.rideralerts.com/InfoPoint/89155,0,,America/Los_Angeles,,,0,
2528899,89153,,Jefferson St at Salvador Ave,,38.34187455894559,-122.31545934612467,,http://ridethevine.rideralerts.com/InfoPoint/89153,0,,America/Los_Angeles,,,0,
2528900,89152,,Salvador Ave at Dale Dr,,38.34132942712043,-122.31886849833467,,http://ridethevine.rideralerts.com/InfoPoint/89152,0,,America/Los_Angeles,,,0,
2528901,89150,,Byway St E at Monarch Dr,,38.33694439065948,-122.32184029557962,,http://ridethevine.rideralerts.com/InfoPoint/89150,0,,America/Los_Angeles,,,0,
2528902,89149,,Byway St E at Reed Cir,,38.33612824442636,-122.32108904049898,,http://ridethevine.rideralerts.com/InfoPoint/89149,0,,America/Los_Angeles,,,0,
2528903,89148,,Byway St E at El Centro Ave,,38.33332072609372,-122.31899270934821,,http://ridethevine.rideralerts.com/InfoPoint/89148,0,,America/Los_Angeles,,,0,
2528904,89147,,Cask Way at Wise Dr,,38.33191132828708,-122.31658256343705,,http://ridethevine.rideralerts.com/InfoPoint/89147,0,,America/Los_Angeles,,,0,
2528905,89146,,Trower Ave at Lassen St,,38.3319444444444,-122.313888888889,,http://ridethevine.rideralerts.com/InfoPoint/89146,0,,America/Los_Angeles,,,0,
2528906,89145,,Trower Ave at Glacier Dr,,38.3325,-122.310277777778,,http://ridethevine.rideralerts.com/InfoPoint/89145,0,,America/Los_Angeles,,,0,
2528907,89143,,Jefferson St at Sierra Ave (NE),,38.3286111111111,-122.304444444444,,http://ridethevine.rideralerts.com/InfoPoint/89143,0,,America/Los_Angeles,,,0,
2528908,89142,,Jefferson St at El Capitan Way North,,38.3272288021277,-122.30347719717,,http://ridethevine.rideralerts.com/InfoPoint/89142,0,,America/Los_Angeles,,,0,
2528909,89138,,Lincoln Ave at York St,,38.30779155907973,-122.29852390883747,,http://ridethevine.rideralerts.com/InfoPoint/89138,0,,America/Los_Angeles,,,0,
2528910,89137,,Lincoln Ave at Pacific St,,38.30730528646694,-122.30114340645264,,http://ridethevine.rideralerts.com/InfoPoint/89137,0,,America/Los_Angeles,,,0,
2528911,89136,,Solano Ave at Lone Oak Ave,,38.30798324791107,-122.30547487243498,,http://ridethevine.rideralerts.com/InfoPoint/89136,0,,America/Los_Angeles,,,0,
2528912,89135,,Solano Ave at Waverly St,,38.3099670962695,-122.30603594960988,,http://ridethevine.rideralerts.com/InfoPoint/89135,0,,America/Los_Angeles,,,0,
2528913,89134,,Solano Ave at Park Ave,,38.31160603536961,-122.30653101471677,,http://ridethevine.rideralerts.com/InfoPoint/89134,0,,America/Los_Angeles,,,0,
2528914,89133,,Pueblo Ave at Solano Ave,,38.31382176487392,-122.30749136926673,,http://ridethevine.rideralerts.com/InfoPoint/89133,0,,America/Los_Angeles,,,0,
2528915,89132,,Pueblo Ave at Pueblo Pl,,38.3127777777778,-122.313055555556,,http://ridethevine.rideralerts.com/InfoPoint/89132,0,,America/Los_Angeles,,,0,
2528918,89127,,Linda Vista Ave at Redwood Rd,,38.32,-122.318888888889,,http://ridethevine.rideralerts.com/InfoPoint/89127,0,,America/Los_Angeles,,,0,
2528919,89126,,Linda Vista Ave at Trojan Rd,,38.3236111111111,-122.321944444444,,http://ridethevine.rideralerts.com/InfoPoint/89126,0,,America/Los_Angeles,,,0,
2528920,89123,,Oxford St at Berks St,,38.3255555555556,-122.319166666667,,http://ridethevine.rideralerts.com/InfoPoint/89123,0,,America/Los_Angeles,,,0,
2528921,89122,,Oxford St at Wales St,,38.3236111111111,-122.3175,,http://ridethevine.rideralerts.com/InfoPoint/89122,0,,America/Los_Angeles,,,0,
2528922,89121,,Oxford St at Carol Dr,,38.32160088759696,-122.31567932511442,,http://ridethevine.rideralerts.com/InfoPoint/89121,0,,America/Los_Angeles,,,0,
2528931,89099,,Lincoln Ave at Silverado Tr (SE),,38.31060455055359,-122.27613598205609,,http://ridethevine.rideralerts.com/InfoPoint/89099,0,,America/Los_Angeles,,,0,
2528932,89098,,Lincoln Ave at Jordan Ln,,38.31017629,-122.28173835,,http://ridethevine.rideralerts.com/InfoPoint/89098,0,,America/Los_Angeles,,,0,
2528933,89097,,Lincoln Ave (SE),,38.309562778934094,-122.28841485077301,,http://ridethevine.rideralerts.com/InfoPoint/89097,0,,America/Los_Angeles,,,0,
2528937,89091,,Villa Ln at Trancas St,,38.323273083860386,-122.29292083497904,,http://ridethevine.rideralerts.com/InfoPoint/89091,0,,America/Los_Angeles,,,0,
2528938,89089,,Beard Rd at La Homa Dr,,38.3186111111111,-122.294444444444,,http://ridethevine.rideralerts.com/InfoPoint/89089,0,,America/Los_Angeles,,,0,
2528939,89088,,Main St at Pueblo Ave,,38.3158333333333,-122.295277777778,,http://ridethevine.rideralerts.com/InfoPoint/89088,0,,America/Los_Angeles,,,0,
2528940,89086,,Lincoln Ave (NW),,38.30975403931561,-122.28862141069555,,http://ridethevine.rideralerts.com/InfoPoint/89086,0,,America/Los_Angeles,,,0,
2528941,89083,,East Ave at Clark St,,38.31064497626531,-122.27421524013894,,http://ridethevine.rideralerts.com/InfoPoint/89083,0,,America/Los_Angeles,,,0,
2528942,89081,,East Ave at 1st St,,38.30368476442507,-122.27329386239246,,http://ridethevine.rideralerts.com/InfoPoint/89081,0,,America/Los_Angeles,,,0,
2528943,89080,,East Ave at Montecito Blvd,,38.3022222222222,-122.273611111111,,http://ridethevine.rideralerts.com/InfoPoint/89080,0,,America/Los_Angeles,,,0,
2528944,89079,,East Ave at Silverado Tr,,38.30033763105186,-122.27513716592821,,http://ridethevine.rideralerts.com/InfoPoint/89079,0,,America/Los_Angeles,,,0,
2528946,89073,,Kansas Ave at Kansas Ct,,38.2852777777778,-122.273611111111,,http://ridethevine.rideralerts.com/InfoPoint/89073,0,,America/Los_Angeles,,,0,
2528947,89071,,Terrace Dr at Kansas Ave,,38.28557995007617,-122.26903737506667,,http://ridethevine.rideralerts.com/InfoPoint/89071,0,,America/Los_Angeles,,,0,
2528948,89070,,Terrace Dr at Shetler Ave,,38.282793260647054,-122.2690400846586,,http://ridethevine.rideralerts.com/InfoPoint/89070,0,,America/Los_Angeles,,,0,
2528952,89063,,Shurtleff Ave at Ullman Ct,,38.290430588783295,-122.2680050733382,,http://ridethevine.rideralerts.com/InfoPoint/89063,0,,America/Los_Angeles,,,0,
2528954,89061,,Terrace Dr at Coombsville Rd,,38.296960585102994,-122.2695431463846,,http://ridethevine.rideralerts.com/InfoPoint/89061,0,,America/Los_Angeles,,,0,
2528955,89060,,3rd St at Juarez St (SE),,38.29930848844009,-122.27673462826793,,http://ridethevine.rideralerts.com/InfoPoint/89060,0,,America/Los_Angeles,,,0,
2528956,89059,,3rd St at Bailey St,,38.29901815677928,-122.27867307628703,,http://ridethevine.rideralerts.com/InfoPoint/89059,0,,America/Los_Angeles,,,0,
2528957,89058,,Coombs St at 4th St,,38.29616088238137,-122.28494750855955,,http://ridethevine.rideralerts.com/InfoPoint/89058,0,,America/Los_Angeles,,,0,
2528958,89057,,Coombs St at 5th St,,38.2955555555556,-122.284444444444,,http://ridethevine.rideralerts.com/InfoPoint/89057,0,,America/Los_Angeles,,,0,
2528959,89055,,Coombs St at Pine St,,38.2902777777778,-122.285833333333,,http://ridethevine.rideralerts.com/InfoPoint/89055,0,,America/Los_Angeles,,,0,
2528960,89054,,Coombs St at Elm St,,38.28889958736665,-122.28648697833759,,http://ridethevine.rideralerts.com/InfoPoint/89054,0,,America/Los_Angeles,,,0,
2528963,89048,,Imola Ave at Minahen St,,38.2818284081786,-122.29555546473661,,http://ridethevine.rideralerts.com/InfoPoint/89048,0,,America/Los_Angeles,,,0,
2528964,89047,,Imola Park n Ride (Golden Gate Drive),,38.281835188612774,-122.30193104474166,,http://ridethevine.rideralerts.com/InfoPoint/89047,0,,America/Los_Angeles,,,0,
2528965,89046,,Imola Ave at Kent St,,38.28182676049431,-122.30334036734118,,http://ridethevine.rideralerts.com/InfoPoint/89046,0,,America/Los_Angeles,,,0,
2528966,89044,,Foster Rd at Indiana St,,38.28461909864865,-122.30683442105456,,http://ridethevine.rideralerts.com/InfoPoint/89044,0,,America/Los_Angeles,,,0,
2528967,89043,,Foster Rd at Idaho St,,38.2872222222222,-122.3075,,http://ridethevine.rideralerts.com/InfoPoint/89043,0,,America/Los_Angeles,,,0,
2528968,89039,,Jefferson St at Madrona St,,38.289103000390355,-122.29441653561122,,http://ridethevine.rideralerts.com/InfoPoint/89039,0,,America/Los_Angeles,,,0,
2528971,89034,,Pine St at Jefferson St,,38.2911111111111,-122.293611111111,,http://ridethevine.rideralerts.com/InfoPoint/89034,0,,America/Los_Angeles,,,0,
2528985,89016,,2nd St at Patchett St,,38.296594476233,-122.2949600284301,,http://ridethevine.rideralerts.com/InfoPoint/89016,0,,America/Los_Angeles,,,0,
2528986,89014,,1st St at Chelsea Avenue,,38.3002777777778,-122.31,,http://ridethevine.rideralerts.com/InfoPoint/89014,0,,America/Los_Angeles,,,0,
2528987,89011,,Browns Valley Rd at Thompson Ave,,38.3036111111111,-122.322777777778,,http://ridethevine.rideralerts.com/InfoPoint/89011,0,,America/Los_Angeles,,,0,
2528988,89010,,Browns Valley Rd at Austin Way,,38.3047222222222,-122.329444444444,,http://ridethevine.rideralerts.com/InfoPoint/89010,0,,America/Los_Angeles,,,0,
2528989,89007,,Browns Valley Rd at Thornhill Dr,,38.3038888888889,-122.323333333333,,http://ridethevine.rideralerts.com/InfoPoint/89007,0,,America/Los_Angeles,,,0,
2528991,89005,,1st St at Freeway Dr,,38.29997133687773,-122.30747726496317,,http://ridethevine.rideralerts.com/InfoPoint/89005,0,,America/Los_Angeles,,,0,
2528992,89175,,Yountville Veterans Home,,38.39388889,-122.3644444,,http://ridethevine.rideralerts.com/InfoPoint/89175,0,,America/Los_Angeles,,,0,
2528996,89062,,Terrace Dr at Liberty Dr,,38.29333565511061,-122.26953529925893,,http://ridethevine.rideralerts.com/InfoPoint/89062,0,,America/Los_Angeles,,,0,
2529007,89139,,Lincoln Ave at Jefferson St,,38.30811877776782,-122.2964613421323,,http://ridethevine.rideralerts.com/InfoPoint/89139,0,,America/Los_Angeles,,,0,
2529010,89124,,Justin Siena High School,,38.32805556,-122.3211111,,http://ridethevine.rideralerts.com/InfoPoint/89124,0,,America/Los_Angeles,,,0,
2529011,89156,,Jefferson St at Trower Ave,,38.33197784102302,-122.30743133180803,,http://ridethevine.rideralerts.com/InfoPoint/89156,0,,America/Los_Angeles,,,0,
2529014,89045,,Foster Rd at Imola Ave,,38.28182719703963,-122.30560421712065,,http://ridethevine.rideralerts.com/InfoPoint/89045,0,,America/Los_Angeles,,,0,
2529018,89056,,Coombs St at Oak St,,38.29340840996375,-122.28490337952027,,http://ridethevine.rideralerts.com/InfoPoint/89056,0,,America/Los_Angeles,,,0,
2529021,89038,,Jefferson St at Laurel St,,38.292397952119586,-122.29434668283659,,http://ridethevine.rideralerts.com/InfoPoint/89038,0,,America/Los_Angeles,,,0,
2529022,89151,,Byway St E at Salvador Ave,,38.33993260975643,-122.32288701845407,,http://ridethevine.rideralerts.com/InfoPoint/89151,0,,America/Los_Angeles,,,0,
2529027,893208,,Jefferson St at Trancas St (NE),,38.323835,-122.300744,,http://ridethevine.rideralerts.com/InfoPoint/893208,0,,America/Los_Angeles,,,0,
2529028,893206,,Claremont Way at Jefferson St (NE),,38.320909,-122.300289,,http://ridethevine.rideralerts.com/InfoPoint/893206,0,,America/Los_Angeles,,,0,
2529029,893209,,East Ave at Highland Dr (SE),,38.307015,-122.273919,,http://ridethevine.rideralerts.com/InfoPoint/893209,0,,America/Los_Angeles,,,0,
2529035,893197,,Soscol Ave at 3rd Ave,,38.298914,-122.282372,,http://ridethevine.rideralerts.com/InfoPoint/893197,0,,America/Los_Angeles,,,0,
2529036,893195,,Main St at Central Ave,,38.312245,-122.294224,,http://ridethevine.rideralerts.com/InfoPoint/893195,0,,America/Los_Angeles,,,0,
2529038,893193,,Old Sonoma Rd at Cherryview Ct,,38.28787044630667,-122.30537843909156,,http://ridethevine.rideralerts.com/InfoPoint/893193,0,,America/Los_Angeles,,,0,
2529039,893192,,Austin Way at Browns Valley Rd,,38.304809,-122.328719,,http://ridethevine.rideralerts.com/InfoPoint/893192,0,,America/Los_Angeles,,,0,
2529046,893182,,1st St at Monroe St,,38.298074,-122.298799,,http://ridethevine.rideralerts.com/InfoPoint/893182,0,,America/Los_Angeles,,,0,
2529051,89300,,Browns Valley Rd at Rowena Ln,,38.305507,-122.336839,,http://ridethevine.rideralerts.com/InfoPoint/89300,0,,America/Los_Angeles,,,0,
2529052,89299,,Browns Valley Rd at Linda Vista Ave,,38.302881,-122.319006,,http://ridethevine.rideralerts.com/InfoPoint/89299,0,,America/Los_Angeles,,,0,
2529053,89298,,Browns Valley Rd at Dezerai Ct,,38.305611,-122.333109,,http://ridethevine.rideralerts.com/InfoPoint/89298,0,,America/Los_Angeles,,,0,
2529054,89297,,Browns Valley Rd at Westview Dr,,38.305856,-122.333147,,http://ridethevine.rideralerts.com/InfoPoint/89297,0,,America/Los_Angeles,,,0,
2529055,89295,,Randolph St at 3rd St,,38.296354,-122.286277,,http://ridethevine.rideralerts.com/InfoPoint/89295,0,,America/Los_Angeles,,,0,
2529063,89082,,East Ave at Highland Dr (NE),,38.307109,-122.273793,,http://ridethevine.rideralerts.com/InfoPoint/89082,0,,America/Los_Angeles,,,0,
2529067,89159,,Jefferson St at Trancas St (SW),,38.323632,-122.30086,,http://ridethevine.rideralerts.com/InfoPoint/89159,0,,America/Los_Angeles,,,0,
2529068,89154,,Jefferson St at Joshua Ct,,38.33903204895154,-122.31234220729377,,http://ridethevine.rideralerts.com/InfoPoint/89154,0,,America/Los_Angeles,,,0,
2529069,89125,,Trower Ave at Lloyd Dr,,38.327682,-122.323008,,http://ridethevine.rideralerts.com/InfoPoint/89125,0,,America/Los_Angeles,,,0,
2529071,89102,,3rd St at Juarez St (NE),,38.299483,-122.276875,,http://ridethevine.rideralerts.com/InfoPoint/89102,0,,America/Los_Angeles,,,0,
2529072,89101,,East Ave at Evans Ave,,38.303135,-122.273392,,http://ridethevine.rideralerts.com/InfoPoint/89101,0,,America/Los_Angeles,,,0,
2529073,89084,,Clark St at Silverado Trail Westbound,,38.31075,-122.276,,http://ridethevine.rideralerts.com/InfoPoint/89084,0,,America/Los_Angeles,,,0,
2529075,89296,,Browns Valley Rd at Partrick Rd,,38.306567,-122.340824,,http://ridethevine.rideralerts.com/InfoPoint/89296,0,,America/Los_Angeles,,,0,
2529076,89064,,Shurtleff Ave at Cayetano Dr,,38.2875,-122.265,,http://ridethevine.rideralerts.com/InfoPoint/89064,0,,America/Los_Angeles,,,0,
2537650,,,Danrose Drive and Kimberly Drive,,38.1585985870486,-122.256003071532,,,0,,America/Los_Angeles,,,0,
2537651,893231,,Danrose Drive and American Canyon Road (Safeway),,38.1644670521296,-122.255603827116,,,0,,America/Los_Angeles,,,0,
2537652,,,244 American Canyon Road,,38.1652205277597,-122.246773561519,,,0,,America/Los_Angeles,,,0,
2537653,,,300 American Canyon Road,,38.164765634364,-122.241926771049,,,0,,America/Los_Angeles,,,0,
2537654,,,Newell/American Canyon High School,,38.1660492595041,-122.240031343612,,,0,,America/Los_Angeles,,,0,
2537655,,,Silver Oak Trail and Shenandoah Drive,,38.1684878059853,-122.24475618172,,,0,,America/Los_Angeles,,,0,
2537656,,,Donaldson/Summerwood Fire Department,,38.1727736123042,-122.248081605467,,,0,,America/Los_Angeles,,,0,
2537657,,,Hwy 29 and Antonia Avenue,,38.1752936975683,-122.253847417926,,,0,,America/Los_Angeles,,,0,
2537658,893229,,Donaldson Way and Rio Del Mar,,38.1745871682691,-122.264374160235,,,0,,America/Los_Angeles,,,0,
2537659,,,Elliot Drive and Kimberly Drive,,38.1586766892343,-122.260288564581,,,0,,America/Los_Angeles,,,0,
2537661,,,Danrose Drive and Kimberly Drive,,38.1585629164847,-122.25619891687,,,0,,America/Los_Angeles,,,0,
2537662,,,Broadway and Ventana Drive,,38.1582931547101,-122.251750555738,,,0,,America/Los_Angeles,,,0,
2537663,,,Broadway and American Canyon Road,,38.1652642252741,-122.250146560615,,,0,,America/Los_Angeles,,,0,
2537664,,,Montessori School,,38.508226,-122.456267,,,0,,America/Los_Angeles,,,0,
2537665,,,Napa Valley College (St. Helens),,38.509395,-122.457218,,,0,,America/Los_Angeles,,,0,
2537666,,,Starr Avenue and Hunt Avenue,,38.51002353997817,-122.46403835995095,,,0,,America/Los_Angeles,,,0,
2537667,,,Robert Louis Stevenson Middle School,,38.5068494645767,-122.475678728024,,,0,,America/Los_Angeles,,,0,
2537668,,,Stockton Street and Adams Street,,38.5021272442365,-122.473576086505,,,0,,America/Los_Angeles,,,0,
2537669,,,St Helena Primary School,,38.4944541608933,-122.467093195707,,,0,,America/Los_Angeles,,,0,
2537670,,,St Helena High School,,38.497599635011,-122.462756937455,,,0,,America/Los_Angeles,,,0,
2537672,893227,,Napa Valley College (St. Helens),,38.5093539078881,-122.457396407854,,,0,,America/Los_Angeles,,,0,
2537673,,,Starr Avenue and Hunt Avenue,,38.5098372222421,-122.463815776022,,,0,,America/Los_Angeles,,,0,
2537675,,,Stockton Street and Adams Street,,38.5022311119372,-122.473551659911,,,0,,America/Los_Angeles,,,0,
2537676,,,St Helena High School,,38.4977072133943,-122.462867534939,,,0,,America/Los_Angeles,,,0,
2555746,893225,,Trancas St and Jefferson St,,38.321278,-122.299611,,,0,,America/Los_Angeles,,,0,
2555754,893226,,Washington St at Mulberry St (NE),,38.40098,-122.3602,,,0,,America/Los_Angeles,,,0,
2576335,89320,,Trancas St at Soscol Ave,,38.32467521,-122.288139,,,0,,America/Los_Angeles,,,0,
2576336,89321,,California Blvd at Lincoln Ave South,,38.30560983,-122.3021294,,,0,,America/Los_Angeles,,,0,
2576337,89322,,California Ave at E St South,,38.30309597,-122.3013572,,,0,,America/Los_Angeles,,,0,
2576338,89323,,California Ave at E St North,,38.30348901,-122.3012025,,,0,,America/Los_Angeles,,,0,
2576339,89324,,California at Lincoln North,,38.30639288,-122.3019852,,,0,,America/Los_Angeles,,,0,
2576342,89327,,Jefferson St at Locust St North,,38.28411155,-122.29384,,,0,,America/Los_Angeles,,,0,
2576343,89328,,Foothill Blvd at Sunrise Dr,,38.29007021,-122.3100093,,,0,,America/Los_Angeles,,,0,
2576344,89329,,Laurel St at Jade Ct,,38.294,-122.31184,,,0,,America/Los_Angeles,,,0,
2576348,89333,,Clinic Ole South,,38.32120637,-122.2931988,,,0,,America/Los_Angeles,,,0,
2576353,89338,,Coombs St at Division St South,,38.29548576,-122.2845939,,,0,,America/Los_Angeles,,,0,
2576354,89339,,Coombs St at Oak St South,,38.29336962,-122.2851015,,,0,,America/Los_Angeles,,,0,
2576355,89340,,Coombs St and Elm St South,,38.28883766,-122.2867021,,,0,,America/Los_Angeles,,,0,
2576356,89341,,Coombs St at Franklin St South,,38.2837496,-122.288561,,,0,,America/Los_Angeles,,,0,
2576358,89344,,Napa Valley Corporate Dr at Napa Valley Corporate Way North,,38.250441,-122.27447,,,0,,America/Los_Angeles,,,0,
2576359,89345,,Napa Valley Corporate Dr at Napa Valley Corporate Way South,,38.24965263103992,-122.27453957373908,,,0,,America/Los_Angeles,,,0,
2628978,,,Danrose Dr at Folland Dr,,38.16128,-122.255962,,,0,,America/Los_Angeles,,,0,
2628979,,,Broadway Dr at Vine Terrace Way,,38.156588,-122.252085,,,0,,America/Los_Angeles,,,0,
2646221,893230,,Danrose Drive and Northampton Drive,,38.1646007905201,-122.255774072763,,,0,,America/Los_Angeles,,,0,
2752259,,,Danrose Dr and Folland Dr SB,,38.161248,-122.25616,,,0,,America/Los_Angeles,,,0,
4160257,,,Imola Park and Ride (NB),,38.281408,-122.299858,,,0,,America/Los_Angeles,,,0,
4160258,,,Imola Park and Ride (SB),,38.281622,-122.301053,,,0,,America/Los_Angeles,,,0,
4211709,,,Gasser DR at Hartle Crt SW,,38.282787886968,-122.278699091339,,,0,,America/Los_Angeles,,,0,
4212922,,,Middleton Way,,38.20252,-122.26453,,,0,,America/Los_Angeles,,,0,
4212924,,,Coombs St and Laurel St South,,38.29216,-122.28561,,,0,,America/Los_Angeles,,,0,
4212925,,,Jefferson St at Madrona St North,,38.2888911378628,-122.294208931823,,,0,,America/Los_Angeles,,,0,
4212926,,,Clark St at Silverado Trail Eastbound,,38.3106,-122.27614,,,0,,America/Los_Angeles,,,0,
4212927,,,Lincoln Ave at Tonbridge Way Eastbound,,38.3102,-122.27961,,,0,,America/Los_Angeles,,,0,
4212928,,,Foothill Blvd At Greco Dr North,,38.288881,-122.310067,,,0,,America/Los_Angeles,,,0,
4212930,,,Foothill Blvd at Pine St North,,38.290847,-122.310065,,,0,,America/Los_Angeles,,,0,
4212932,,,Foothill Blvd at Hilltop Blvd North,,38.293149,-122.310061,,,0,,America/Los_Angeles,,,0,
4212934,,,Laurel St at Laurel Ln North,,38.2975,-122.31417,,,0,,America/Los_Angeles,,,0,
4212935,,,Laurel St at Kilburn Ave North,,38.3000806641528,-122.31497354982778,,,0,,America/Los_Angeles,,,0,
7275722,89001,,Soscol Gateway Transit Ctr,,38.2975,-122.28,,http://ridethevine.rideralerts.com/InfoPoint/89001,0,,America/Los_Angeles,,,0,
7275726,89107,,Napa High North,,38.31029,-122.29623,,,0,,America/Los_Angeles,,,0,
7275727,893222,,Jefferson St at Pueblo Ave,,38.315,-122.2975,,http://ridethevine.rideralerts.com/InfoPoint/893222,0,,America/Los_Angeles,,,0,
7275728,89109,,Jefferson St at Sheridan Way (NE),,38.3180555555556,-122.298333333333,,http://ridethevine.rideralerts.com/InfoPoint/89109,0,,America/Los_Angeles,,,0,
7275729,893205,,Claremont Way at Kaiser (NE),,38.321,-122.302239,,http://ridethevine.rideralerts.com/InfoPoint/893205,0,,America/Los_Angeles,,,0,
7275730,89112,,Trancas St at Baxter Ave,,38.32207325002639,-122.30512412849107,,http://ridethevine.rideralerts.com/InfoPoint/89112,0,,America/Los_Angeles,,,0,
7275731,891131,,Redwood Park n Ride,,38.32222222,-122.3105556,,http://ridethevine.rideralerts.com/InfoPoint/891131,0,,America/Los_Angeles,,,0,
7275892,89114,,Trancas St at California Blvd,,38.32151780943994,-122.30654539179173,,http://ridethevine.rideralerts.com/InfoPoint/89114,0,,America/Los_Angeles,,,0,
7275893,89111,,Claremont Way at Kaiser,,38.32083333,-122.3022222,,http://ridethevine.rideralerts.com/InfoPoint/89111,0,,America/Los_Angeles,,,0,
7275894,89094,,Jefferson St at Sheridan Way (SW),,38.3188888888889,-122.298888888889,,http://ridethevine.rideralerts.com/InfoPoint/89094,0,,America/Los_Angeles,,,0,
7275895,89095,,Jefferson St at Pueblo Ave (NW),,38.3161111111111,-122.298055555556,,http://ridethevine.rideralerts.com/InfoPoint/89095,0,,America/Los_Angeles,,,0,
7275896,89116,,Napa High School,,38.311558,-122.296827,,http://ridethevine.rideralerts.com/InfoPoint/89116,0,,America/Los_Angeles,,,0,
7275898,89190,,Soscol Ave at Lincoln Ave South,,38.309829,-122.285347,,,0,,America/Los_Angeles,,,0,
7275899,89191,,Soscol Ave at Tanen St,,38.3066666666667,-122.285277777778,,http://ridethevine.rideralerts.com/InfoPoint/89191,0,,America/Los_Angeles,,,0,
7275900,89342,,Soscol Ave At Clinton St,,38.30255002,-122.2850901,,,0,,America/Los_Angeles,,,0,
7276069,89192,,Soscol Ave at Sousa Lane,,38.293848,-122.278959,,http://ridethevine.rideralerts.com/InfoPoint/89192,0,,America/Los_Angeles,,,0,
7276070,89193,,Soscol Ave at Silverado Tr South,,38.288657,-122.275613,,http://ridethevine.rideralerts.com/InfoPoint/89077,0,,America/Los_Angeles,,,0,
7276071,89051,,Soscol Ave at Kansas Ave South,,38.2847222222222,-122.274722222222,,http://ridethevine.rideralerts.com/InfoPoint/89051,0,,America/Los_Angeles,,,0,
7276072,89052,,Imola Ave at Gasser Dr,,38.28089572831195,-122.27748980951273,,http://ridethevine.rideralerts.com/InfoPoint/89052,0,,America/Los_Angeles,,,0,
7276073,89326,,Imola and Coombs,,38.28187734,-122.2894621,,,0,,America/Los_Angeles,,,0,
7276074,89336,,Imola Ave at Foster Rd West,,38.28199449,-122.3058198,,,0,,America/Los_Angeles,,,0,
7276075,89337,,Foster Rd at Indiana St North,,38.28440484,-122.3065631,,,0,,America/Los_Angeles,,,0,
7276076,89029,,Old Sonoma Rd at Foster Rd,,38.28767136,-122.3072409,,http://ridethevine.rideralerts.com/InfoPoint/89029,0,,America/Los_Angeles,,,0,
7276077,89030,,Old Sonoma Rd at Underhill Dr (SE),,38.287654548818324,-122.30417457886473,,http://ridethevine.rideralerts.com/InfoPoint/89030,0,,America/Los_Angeles,,,0,
7276259,893174,,Old Sonoma Rd at S Seymour St,,38.2876716790507,-122.29791128661239,,http://ridethevine.rideralerts.com/InfoPoint/893174,0,,America/Los_Angeles,,,0,
7276260,89032,,Old Sonoma Rd at Hartson St,,38.28766378360129,-122.29571538365448,,http://ridethevine.rideralerts.com/InfoPoint/89032,0,,America/Los_Angeles,,,0,
7276261,89325,,Jefferson St at Locust St South,,38.28490344,-122.29407,,,0,,America/Los_Angeles,,,0,
7276262,89049,,Imola Ave at Jefferson St,,38.28184106887227,-122.29264337346594,,http://ridethevine.rideralerts.com/InfoPoint/89049,0,,America/Los_Angeles,,,0,
7276263,89050,,Gasser Dr at Hartle Ct,,38.28138889,-122.2783333,,http://ridethevine.rideralerts.com/InfoPoint/89050,0,,America/Los_Angeles,,,0,
7276264,890741,,Kansas Ave at Soscol Ave,,38.285,-122.275555555556,,http://ridethevine.rideralerts.com/InfoPoint/890741,0,,America/Los_Angeles,,,0,
7276265,89077,,Soscol Ave at Silverado Tr North,,38.289665,-122.275906,,,0,,America/Los_Angeles,,,0,
7276266,89078,,Soscol Ave at Sousa Ln,,38.292210037452065,-122.27766187074144,,http://ridethevine.rideralerts.com/InfoPoint/89078,0,,America/Los_Angeles,,,0,
7276549,89072,,Kansas Ave at Wilkins Ave,,38.285592394462,-122.270637695198,,,0,,America/Los_Angeles,,,0,
7276550,89065,,Shetler Ave at Shurtleff Ave,,38.28260544203977,-122.2630664015659,,http://ridethevine.rideralerts.com/InfoPoint/89065,0,,America/Los_Angeles,,,0,
7276551,89066,,Laredo St at Maria Dr,,38.28379185714152,-122.26006084513561,,http://ridethevine.rideralerts.com/InfoPoint/89066,0,,America/Los_Angeles,,,0,
7276552,89067,,Seville Dr at Perkins St,,38.2816666666667,-122.257777777778,,http://ridethevine.rideralerts.com/InfoPoint/89067,0,,America/Los_Angeles,,,0,
7276553,89301,,Chamberlain High School,,38.2797971204481,-122.256792783737,,http://ridethevine.rideralerts.com/InfoPoint/89301,0,,America/Los_Angeles,,,0,
7276554,89068,,Imola Ave at Navarre St,,38.27989035,-122.260007,,http://ridethevine.rideralerts.com/InfoPoint/89068,0,,America/Los_Angeles,,,0,
7276555,89069,,Imola Ave at Parrish Rd,,38.280085,-122.26423,,http://ridethevine.rideralerts.com/InfoPoint/89069,0,,America/Los_Angeles,,,0,
7276556,89076,,Soscol Ave at Kansas Ave North,,38.28475,-122.274417,,http://ridethevine.rideralerts.com/InfoPoint/89076,0,,America/Los_Angeles,,,0,
7276876,893190,,3rd St at Brown St (WB),,38.297502,-122.285073,,http://ridethevine.rideralerts.com/InfoPoint/893190,0,,America/Los_Angeles,,,0,
7276877,89017,,3rd St at Jefferson St,,38.2955555555556,-122.2925,,http://ridethevine.rideralerts.com/InfoPoint/89017,0,,America/Los_Angeles,,,0,
7276878,89019,,Premium Outlets,,38.295,-122.302222222222,,http://ridethevine.rideralerts.com/InfoPoint/89019,0,,America/Los_Angeles,,,0,
7276879,89020,,Kilburn Ave at Cornwall Ave,,38.2961111111111,-122.305555555556,,http://ridethevine.rideralerts.com/InfoPoint/89020,0,,America/Los_Angeles,,,0,
7276880,89021,,Kilburn Ave at Bryan Ave,,38.2976,-122.30802,,http://ridethevine.rideralerts.com/InfoPoint/89021,0,,America/Los_Angeles,,,0,
7276881,89022,,Kilburn Ave at Chelsea Ave,,38.29936,-122.31207,,http://ridethevine.rideralerts.com/InfoPoint/89022,0,,America/Los_Angeles,,,0,
7276882,89023,,Laurel St at Kilburn Ave,,38.30007,-122.31516,,http://ridethevine.rideralerts.com/InfoPoint/89023,0,,America/Los_Angeles,,,0,
7276883,89024,,Laurel St at Laurel Ln,,38.29749,-122.31432,,http://ridethevine.rideralerts.com/InfoPoint/89024,0,,America/Los_Angeles,,,0,
7276884,89025,,Laurel St at Griggs Ln,,38.294544427188356,-122.31272363474399,,http://ridethevine.rideralerts.com/InfoPoint/89025,0,,America/Los_Angeles,,,0,
7276885,89026,,Foothill Blvd at Hilltop Dr,,38.29310460200594,-122.31021894783942,,http://ridethevine.rideralerts.com/InfoPoint/89026,0,,America/Los_Angeles,,,0,
7276886,89027,,Foothill Blvd at Pine St,,38.29103373420139,-122.31021927128675,,http://ridethevine.rideralerts.com/InfoPoint/89027,0,,America/Los_Angeles,,,0,
7276887,89028,,Foothill Blvd at Greco Dr,,38.288687303217586,-122.31022274487496,,http://ridethevine.rideralerts.com/InfoPoint/89028,0,,America/Los_Angeles,,,0,
7276888,89033,,Jefferson St at Elm St,,38.29,-122.294166666667,,http://ridethevine.rideralerts.com/InfoPoint/89033,0,,America/Los_Angeles,,,0,
7276889,89035,,Pine St at Seminary St,,38.2911111111111,-122.291944444444,,http://ridethevine.rideralerts.com/InfoPoint/89035,0,,America/Los_Angeles,,,0,
7276890,89037,,Franklin St at Division St,,38.29511732327461,-122.28694133790522,,http://ridethevine.rideralerts.com/InfoPoint/89037,0,,America/Los_Angeles,,,0,
7276891,89304,,3rd St at Brown St,,38.297433,-122.28482,,http://ridethevine.rideralerts.com/InfoPoint/89304,0,,America/Los_Angeles,,,0,
7277462,89213,,Vallejo Ferry Terminal,,38.1006501224041,-122.262389212066,,http://ridethevine.rideralerts.com/InfoPoint/89213,0,,America/Los_Angeles,,,0,
7277463,89265,,American Canyon Post Office (NB),,38.1687217235351,-122.255926949332,,,0,,America/Los_Angeles,,,0,
7278073,89195,,Napa Valley College,,38.273809507113214,-122.27322382754741,,http://ridethevine.rideralerts.com/InfoPoint/89195,0,,America/Los_Angeles,,,0,
7278615,89264,,American Canyon Post Office,,38.16844,-122.255581,,http://ridethevine.rideralerts.com/InfoPoint/89264,0,,America/Los_Angeles,,,0,
7279773,89305,,Suisun City Train Depot,,38.2429495925367,-122.041518688202,,http://ridethevine.rideralerts.com/InfoPoint/89305,0,,America/Los_Angeles,,,0,
7279774,89306,,Fairfield Transportation Ctr,,38.24838074621019,-122.0686477931844,,http://ridethevine.rideralerts.com/InfoPoint/89306,0,,America/Los_Angeles,,,0,
7282218,89267,,El Cerrito Del Norte BART Station,,37.925323,-122.317363,,http://ridethevine.rideralerts.com/InfoPoint/89267,0,,America/Los_Angeles,,,0,
7283899,89232,,Soscol Ave at Imperial Way,,38.30723745293787,-122.28495458554228,,http://ridethevine.rideralerts.com/InfoPoint/89232,0,,America/Los_Angeles,,,0,
7283900,893185,,Soscol Ave at Lincoln Ave North,,38.30964684,-122.2849813,,http://ridethevine.rideralerts.com/InfoPoint/893185,0,,America/Los_Angeles,,,0,
7283901,89234,,Soscol Ave at Stonehouse Dr,,38.31327894333643,-122.28505935785165,,http://ridethevine.rideralerts.com/InfoPoint/89234,0,,America/Los_Angeles,,,0,
7283902,89235,,Soscol Ave at Costa Dr,,38.315393020181745,-122.28506161186036,,http://ridethevine.rideralerts.com/InfoPoint/89235,0,,America/Los_Angeles,,,0,
7283903,893177,,Soscol Ave At Pueblo Ave North,,38.317778,-122.285,,http://ridethevine.rideralerts.com/InfoPoint/893177,0,,America/Los_Angeles,,,0,
7283904,89237,,Soscol Ave At La Homa Dr North,,38.32,-122.285,,http://ridethevine.rideralerts.com/InfoPoint/89237,0,,America/Los_Angeles,,,0,
7283905,89238,,Soscol Ave at Pear Tree Ln (NE),,38.32336584292992,-122.28776281091172,,http://ridethevine.rideralerts.com/InfoPoint/89238,0,,America/Los_Angeles,,,0,
7283906,89239,,Trancas St at Valle Verde Dr,,38.32445737997267,-122.29127317534818,,http://ridethevine.rideralerts.com/InfoPoint/89239,0,,America/Los_Angeles,,,0,
7283907,89240,,Trancas St at Villa Ln (NW),,38.32417414813207,-122.2929436614344,,http://ridethevine.rideralerts.com/InfoPoint/89240,0,,America/Los_Angeles,,,0,
7283908,893215,,Queen of the Valley Hospital,,38.32353121205861,-122.29668523171168,,http://ridethevine.rideralerts.com/InfoPoint/893215,0,,America/Los_Angeles,,,0,
7283909,89184,,Trancas St at Jefferson St North,,38.3227548400308,-122.301147186947,,http://ridethevine.rideralerts.com/InfoPoint/89184,0,,America/Los_Angeles,,,0,
7283910,89241,,Solano Ave at Devonshire Dr North,,38.326111,-122.313611,,,0,,America/Los_Angeles,,,0,
7283911,89242,,Solano Ave at Wine Country Ave North,,38.33608,-122.322264,,,0,,America/Los_Angeles,,,0,
7283912,89243,,Solano Ave at Mobile Dr,,38.3402777777778,-122.325277777778,,http://ridethevine.rideralerts.com/InfoPoint/89243,0,,America/Los_Angeles,,,0,
7283913,89244,,Solano Ave at Newell Cir North,,38.341389,-122.325833,,,0,,America/Los_Angeles,,,0,
7283914,89246,,Solano Ave at Orchard Ave North,,38.346944,-122.328611,,,0,,America/Los_Angeles,,,0,
7283915,89113,,Yountville Park & Ride,,38.397035,-122.360838,,http://ridethevine.rideralerts.com/InfoPoint/89263,0,,America/Los_Angeles,,,0,
7283917,89247,,Washington St At Mission St North,,38.398611,-122.358333,,,0,,America/Los_Angeles,,,0,
7283918,89248,,Washington St At Mulberry St North,,38.401302,-122.360197,,,0,,America/Los_Angeles,,,0,
7283919,89249,,Washington St at Madison St North,,38.4066666666667,-122.366944444444,,http://ridethevine.rideralerts.com/InfoPoint/89249,0,,America/Los_Angeles,,,0,
7283920,89250,,Highway 29 at Oakville Rd North,,38.436944,-122.402778,,,0,,America/Los_Angeles,,,0,
7283921,89251,,Highway 29 at Rutherford Rd North,,38.4590492,-122.4228959,,,0,,America/Los_Angeles,,,0,
7283922,89252,,Highway 29 At Zinfandel Ln North,,38.482222,-122.441944,,,0,,America/Los_Angeles,,,0,
7283923,89254,,Main St at Pope St,,38.503391,-122.467023,,http://ridethevine.rideralerts.com/InfoPoint/89254,0,,America/Los_Angeles,,,0,
7283924,89166,,Main St. at Pine St.,,38.50622206,-122.4716928,,http://ridethevine.rideralerts.com/InfoPoint/89166,0,,America/Los_Angeles,,,0,
7283925,89003,,Main St at Pratt St,,38.509641,-122.477716,,http://ridethevine.rideralerts.com/InfoPoint/89256,0,,America/Los_Angeles,,,0,
7283926,89257,,Hwy 29 at Lodi Ln,,38.525,-122.497446,,http://ridethevine.rideralerts.com/InfoPoint/89257,0,,America/Los_Angeles,,,0,
7283927,893178,,Bothe State Park North,,38.55445829,-122.5275135,,http://ridethevine.rideralerts.com/InfoPoint/893178,0,,America/Los_Angeles,,,0,
7283928,89259,,Highway 29 At Peterson Drive North,,38.55902,-122.53501,,http://ridethevine.rideralerts.com/InfoPoint/89259,0,,America/Los_Angeles,,,0,
7283929,89260,,Highway 29 at Dunaweal Ln North,,38.565128,-122.558189,,http://ridethevine.rideralerts.com/InfoPoint/89260,0,,America/Los_Angeles,,,0,
7283930,89319,,Calistoga Lincoln Bridge North,,38.5771235654036,-122.579578291773,,http://ridethevine.rideralerts.com/InfoPoint/89319,0,,America/Los_Angeles,,,0,
7283931,893199,,Highway 29 at Fair Way,,38.579979,-122.578247,,http://ridethevine.rideralerts.com/InfoPoint/893199,0,,America/Los_Angeles,,,0,
7283932,893187,,Hwy 29 at Brannan St,,38.583539,-122.574604,,http://ridethevine.rideralerts.com/InfoPoint/893187,0,,America/Los_Angeles,,,0,
7283933,89160,,Calistoga Lincoln Bridge South,,38.5771772491489,-122.579754889011,,http://ridethevine.rideralerts.com/InfoPoint/89160,0,,America/Los_Angeles,,,0,
7284847,89231,,Soscol Ave at Magnolia Dr,,38.2780321588437,-122.27347709208519,,http://ridethevine.rideralerts.com/InfoPoint/89231,0,,America/Los_Angeles,,,0,
7284848,89177,,Solano Ave at Hacienda Dr South,,38.3425,-122.326667,,,0,,America/Los_Angeles,,,0,
7284849,89002,,Hwy 29 at Dowdell Ln North,,38.497912,-122.460384,,,0,,America/Los_Angeles,,,0,
7285693,89161,,Hwy 29 at Dunaweal Ln (SB),,38.564877,-122.557636,,http://ridethevine.rideralerts.com/InfoPoint/89161,0,,America/Los_Angeles,,,0,
7285694,89162,,Hwy 29 at Peterson Dr (SB),,38.5580555555556,-122.533888888889,,http://ridethevine.rideralerts.com/InfoPoint/89162,0,,America/Los_Angeles,,,0,
7285695,89163,,Bothe State Park (SB),,38.553371,-122.525833,,http://ridethevine.rideralerts.com/InfoPoint/89163,0,,America/Los_Angeles,,,0,
7285696,89164,,Hwy 29 at Byrd Hill Ln,,38.5255555555556,-122.498055555556,,http://ridethevine.rideralerts.com/InfoPoint/89164,0,,America/Los_Angeles,,,0,
7285697,89165,,Hwy 29 at Elmhurst Ave,,38.5083333333333,-122.475833333333,,http://ridethevine.rideralerts.com/InfoPoint/89165,0,,America/Los_Angeles,,,0,
7285698,89302,,St Helena Post Office,,38.5058704022277,-122.471437688098,,,0,,America/Los_Angeles,,,0,
7285699,89167,,Hwy 29 at Mitchell Dr,,38.5027777777778,-122.466388888889,,http://ridethevine.rideralerts.com/InfoPoint/89167,0,,America/Los_Angeles,,,0,
7285700,89168,,Hwy 29 at Dowdell Ln South,,38.4977777777778,-122.460555555556,,http://ridethevine.rideralerts.com/InfoPoint/89168,0,,America/Los_Angeles,,,0,
7285701,89169,,Hwy 29 at Zinfandel Ln (SB),,38.4816666666667,-122.441666666667,,http://ridethevine.rideralerts.com/InfoPoint/89169,0,,America/Los_Angeles,,,0,
7285702,89170,,Highway 29 at Rutherford Rd South,,38.458056,-122.422222,,http://ridethevine.rideralerts.com/InfoPoint/89170,0,,America/Los_Angeles,,,0,
7285703,89171,,Highway 29 at Oakville Rd South,,38.436944,-122.403056,,,0,,America/Los_Angeles,,,0,
7285704,89172,,Washington St At Madison St South,,38.406111,-122.366667,,http://ridethevine.rideralerts.com/InfoPoint/89171,0,,America/Los_Angeles,,,0,
7285705,89173,,Washington St At Mulberry St South,,38.40098217,-122.3602,,http://ridethevine.rideralerts.com/InfoPoint/89173,0,,America/Los_Angeles,,,0,
7285706,89174,,Washington St at Mission St South,,38.398611,-122.358611,,http://ridethevine.rideralerts.com/InfoPoint/89174,0,,America/Los_Angeles,,,0,
7285707,89176,,Solano Ave at Orchard Ave South,,38.34738522,-122.3290938,,,0,,America/Los_Angeles,,,0,
7285708,89178,,Solano Ave at Newell Cir South,,38.3413888888889,-122.326111111111,,http://ridethevine.rideralerts.com/InfoPoint/89178,0,,America/Los_Angeles,,,0,
7285709,89179,,Solano Ave at Salvador Ave,,38.3388888888889,-122.324722222222,,http://ridethevine.rideralerts.com/InfoPoint/89179,0,,America/Los_Angeles,,,0,
7285710,89180,,Solano Ave at Wine Country Ave South,,38.335833,-122.322222,,,0,,America/Los_Angeles,,,0,
7285711,89181,,Solano Ave at Trower N (SB),,38.3333333333333,-122.320277777778,,http://ridethevine.rideralerts.com/InfoPoint/89181,0,,America/Los_Angeles,,,0,
7285712,89182,,Solano Ave at Devonshire Dr South,,38.325556,-122.313333,,,0,,America/Los_Angeles,,,0,
7285713,893223,,Trancas St at Claremont Way,,38.32232352625019,-122.30183308208791,,http://ridethevine.rideralerts.com/InfoPoint/893223,0,,America/Los_Angeles,,,0,
7285714,89092,,Queen of the Valley,,38.3233781104959,-122.296220528737,,http://ridethevine.rideralerts.com/InfoPoint/89092,0,,America/Los_Angeles,,,0,
7285715,89186,,Trancas St at Villa Ln (SW),,38.323784326706715,-122.29375009739553,,http://ridethevine.rideralerts.com/InfoPoint/89186,0,,America/Los_Angeles,,,0,
7285716,89187,,Soscol Ave at Pear Tree Ln (NW),,38.32314445117507,-122.28784013139764,,http://ridethevine.rideralerts.com/InfoPoint/89187,0,,America/Los_Angeles,,,0,
7285718,89236,,Soscol Ave at Pueblo Ave South,,38.31772868,-122.2853369,,,0,,America/Los_Angeles,,,0,
7285719,89189,,Soscol Ave at Central Ave,,38.31379334469463,-122.28532304384885,,http://ridethevine.rideralerts.com/InfoPoint/89189,0,,America/Los_Angeles,,,0,
7289124,89211,,Sereno Transfer Ctr,,38.12783222795886,-122.25313810143511,,http://ridethevine.rideralerts.com/InfoPoint/89211,0,,America/Los_Angeles,,,0,
7289125,89214,,Kaiser Hospital,,38.12813050595855,-122.2486646456598,,http://ridethevine.rideralerts.com/InfoPoint/89214,0,,America/Los_Angeles,,,0,
7289126,893217,,Sutter Hospital NB,,38.13067898659932,-122.24035357335973,,http://ridethevine.rideralerts.com/InfoPoint/893217,0,,America/Los_Angeles,,,0,
7289127,89207,,Mini Dr at Elliott Dr,,38.1528151862942,-122.257827564408,,http://ridethevine.rideralerts.com/InfoPoint/89207,0,,America/Los_Angeles,,,0,
7289128,89219,,Elliott Dr at Severus Dr,,38.15523052627552,-122.25880615086145,,http://ridethevine.rideralerts.com/InfoPoint/89219,0,,America/Los_Angeles,,,0,
7289129,892042,,American Canyon Senior Center (NB),,38.1618076110222,-122.260038269738,,http://ridethevine.rideralerts.com/InfoPoint/892042,0,,America/Los_Angeles,,,0,
7289130,89222,,Elliott Dr at American Canyon Rd (SE),,38.16618901926745,-122.26156781672813,,http://ridethevine.rideralerts.com/InfoPoint/89222,0,,America/Los_Angeles,,,0,
7289131,89223,,Donaldson Way at Benton Way (SE),,38.170372,-122.26192,,http://ridethevine.rideralerts.com/InfoPoint/89223,0,,America/Los_Angeles,,,0,
7289132,89224,,Rio del Mar at Carolyn Dr (SE),,38.17567875185654,-122.26129796471747,,http://ridethevine.rideralerts.com/InfoPoint/89224,0,,America/Los_Angeles,,,0,
7289133,893175,,Rio del Mar and Hwy 29 (7-11),,38.1791037512338,-122.255792772403,,http://ridethevine.rideralerts.com/InfoPoint/893175,0,,America/Los_Angeles,,,0,
7289134,893211,,Napa Junction Walmart Parking Lot,,38.18277,-122.254652,,http://ridethevine.rideralerts.com/InfoPoint/893211,0,,America/Los_Angeles,,,0,
7289135,89227,,Devlin Rd at Airport Blvd,,38.22335482484948,-122.26239559757377,,http://ridethevine.rideralerts.com/InfoPoint/89227,0,,America/Los_Angeles,,,0,
7289136,89228,,Devlin Rd (NB),,38.225216866802754,-122.26278321240048,,http://ridethevine.rideralerts.com/InfoPoint/89228,0,,America/Los_Angeles,,,0,
7289137,89040,,Health and Human Services,,38.2493906,-122.2748931,,http://ridethevine.rideralerts.com/InfoPoint/89040,0,,America/Los_Angeles,,,0,
7289138,893202,,Napa Valley Corp Dr at LaTour Ct (NB),,38.255297,-122.274432,,http://ridethevine.rideralerts.com/InfoPoint/893202,0,,America/Los_Angeles,,,0,
7289139,892301,,Kaiser Rd at Corporate Way (NB),,38.25757,-122.272713,,http://ridethevine.rideralerts.com/InfoPoint/892301,0,,America/Los_Angeles,,,0,
7291060,89194,,Soscol Ave at College Way,,38.27843772252507,-122.27410498453037,,http://ridethevine.rideralerts.com/InfoPoint/89194,0,,America/Los_Angeles,,,0,
7291061,89196,,Kaiser Rd at Corporate Way (SB),,38.257769,-122.273387,,http://ridethevine.rideralerts.com/InfoPoint/89196,0,,America/Los_Angeles,,,0,
7291062,893200,,Napa Valley Corp Dr at LaTour Ct (SB),,38.256186,-122.274764,,http://ridethevine.rideralerts.com/InfoPoint/893200,0,,America/Los_Angeles,,,0,
7291063,89198,,Devlin Rd (SB),,38.23681153675403,-122.26450806746706,,http://ridethevine.rideralerts.com/InfoPoint/89198,0,,America/Los_Angeles,,,0,
7291064,89229,,Devlin Rd & Gateway Rd (SB),,38.2241403619432,-122.262834660354,,,0,,America/Los_Angeles,,,0,
7291065,893212,,American Canyon City Hall,,38.184721,-122.255606,,http://ridethevine.rideralerts.com/InfoPoint/893212,0,,America/Los_Angeles,,,0,
7291066,893228,,Rio del Mar at Hwy 29 (7-11),,38.1792413263061,-122.255833585133,,,0,,America/Los_Angeles,,,0,
7291067,89201,,Rio del Mar at Carolyn Dr (SW),,38.17675315515524,-122.26088976422999,,http://ridethevine.rideralerts.com/InfoPoint/89201,0,,America/Los_Angeles,,,0,
7291068,892021,,Donaldson Way at Benton Way (NW),,38.170976603425004,-122.2622812431621,,http://ridethevine.rideralerts.com/InfoPoint/892021,0,,America/Los_Angeles,,,0,
7291069,89203,,Elliott Dr at American Canyon Rd (NW),,38.16615412294328,-122.26178300567213,,http://ridethevine.rideralerts.com/InfoPoint/89203,0,,America/Los_Angeles,,,0,
7291070,893224,,American Canyon Senior Center (SB),,38.161798520766,-122.260286633567,,,0,,America/Los_Angeles,,,0,
7291071,893201,,Elliott Dr at Marla Dr,,38.15521553495333,-122.25898025318739,,http://ridethevine.rideralerts.com/InfoPoint/893201,0,,America/Los_Angeles,,,0,
7291072,89208,,Broadway St at Mini Dr,,38.15341469904291,-122.25304731877321,,http://ridethevine.rideralerts.com/InfoPoint/89208,0,,America/Los_Angeles,,,0,
7291073,893216,,Sutter Hospital SB,,38.13095107490395,-122.24087604064613,,http://ridethevine.rideralerts.com/InfoPoint/893216,0,,America/Los_Angeles,,,0,
7291074,89210,,Kaiser Hospital North,,38.12820087527896,-122.24968890213495,,,0,,America/Los_Angeles,,,0,
7291075,89343,,Vallejo Ferry Terminal South,,38.10035941,-122.2625153,,,0,,America/Los_Angeles,,,0,
7291076,89212,,Vallejo Transit Ctr,,38.100103,-122.257906,,http://ridethevine.rideralerts.com/InfoPoint/89212,0,,America/Los_Angeles,,,0,
7293667,89131,,Pueblo Ave at Linda Vista Ave,,38.312262076141934,-122.31682751478105,,http://ridethevine.rideralerts.com/InfoPoint/89131,0,,America/Los_Angeles,,,0,
7293668,89128,,Linda Vista Ave at Sutherland Dr,,38.31686310261006,-122.31764694349698,,http://ridethevine.rideralerts.com/InfoPoint/89128,0,,America/Los_Angeles,,,0,
7293676,89110,,Claremont Way at Jefferson St,,38.32078611673988,-122.30025246084958,,http://ridethevine.rideralerts.com/InfoPoint/89110,0,,America/Los_Angeles,,,0,
7293677,89105,,Jefferson St at D St,,38.3036111111111,-122.294166666667,,http://ridethevine.rideralerts.com/InfoPoint/89105,0,,America/Los_Angeles,,,0,
7293679,89103,,Jefferson St at Calistoga Ave,,38.3,-122.293055555556,,http://ridethevine.rideralerts.com/InfoPoint/89103,0,,America/Los_Angeles,,,0,
7293682,89093,,Jefferson St at Claremont Way,,38.3210344314885,-122.29965670803159,,http://ridethevine.rideralerts.com/InfoPoint/89093,0,,America/Los_Angeles,,,0,
7293714,89129,,Sutherland Dr at Linda Vista Ave,,38.31571105212265,-122.31817435952908,,http://ridethevine.rideralerts.com/InfoPoint/89129,0,,America/Los_Angeles,,,0,
7293727,893194,,Soscol Ave at 8th Ave,,38.294683,-122.279448,,http://ridethevine.rideralerts.com/InfoPoint/893194,0,,America/Los_Angeles,,,0,
7293730,893191,,3rd St at Jefferson St (WB),,38.295736,-122.292801,,http://ridethevine.rideralerts.com/InfoPoint/893191,0,,America/Los_Angeles,,,0,
7293760,89009,,Mini Dr/Elliot,,38.1526824865392,-122.257651468699,,,0,,America/Los_Angeles,,,0,
7293761,89120,,Redwood Rd at Solano Avenue,,38.3208978728121,-122.311533970113,,,0,,America/Los_Angeles,,,0,
7293772,89330,,Redwood Rd at Dover St,,38.32002743,-122.3165376,,,0,,America/Los_Angeles,,,0,
7293773,89331,,Linda Vista Ave at Redwood Rd,,38.31937839,-122.3181624,,,0,,America/Los_Angeles,,,0,
7293774,89332,,Redwood Rd at Solano Ave East,,38.32080715,-122.3107023,,,0,,America/Los_Angeles,,,0,
7293782,89106,,Jefferson St at H St North,,38.30691116,-122.2951055,,,0,,America/Los_Angeles,,,0,
7293784,891842,,Trancas St at Jefferson St (SE),,38.3228981028548,-122.298995088844,,,0,,America/Los_Angeles,,,0,
7365584,89117,,Jefferson St at H St South,,38.306667,-122.295278,,,0,,America/Los_Angeles,,,0,
7365585,89118,,Jefferson St at F St,,38.3055555555556,-122.295,,http://ridethevine.rideralerts.com/InfoPoint/89118,0,,America/Los_Angeles,,,0,
7365586,89104,,Jefferson St at Cedar Ave,,38.30113944568339,-122.29347411279687,,http://ridethevine.rideralerts.com/InfoPoint/89104,0,,America/Los_Angeles,,,0,
7365588,89119,,Jefferson St at B St,,38.302304918196114,-122.29408673719854,,http://ridethevine.rideralerts.com/InfoPoint/89119,0,,America/Los_Angeles,,,0,
89006,89006,,Solano Ave at Trower N (NB),,38.333629,-122.320355,,,0,,America/Los_Angeles,,,0,
89008,89008,,Imola Ave at Minahen St,,38.2821213640452,-122.295346274339,,,0,,America/Los_Angeles,,,0,
892372,892372,,Soscol Ave at Old Soscol Way,,38.32154,-122.285796,,,0,,America/Los_Angeles,,,0,
9044963,,,Soscol Ave at Sousa Lane,,38.293947,-122.279077,,,0,,America/Los_Angeles,,,0,
