timetable_id,stop_id,stop_sequence,stop_name,connected_routes
2933,7275722,1,Soscol Gateway Transit Ctr,"10/Up Valley Connector, 10X/Up Valley Express, 11/Napa-Vallejo Connector, 11X/Napa-Vallejo Express, 21/Napa-Solano Express, 29/Napa-BART Express, B/Westwood | South Napa, C/Jefferson | Central Napa, D/Shelter | Shurtleff, E/East, E/Vintage, F/Southwest Napa, G/Coombs | South Napa, H/North Napa, N/Trancas | North Napa, S/Imola | South Napa, W/West"
2933,7276876,2,3rd St at Brown St (WB),"B/Westwood | South Napa, C/Jefferson | Central Napa, F/Southwest Napa, G/Coombs | South Napa, H/North Napa, N/Trancas | North Napa, W/West"
2933,7276878,3,Premium Outlets,"B/Westwood | South Napa, W/West"
2933,7276077,4,Old Sonoma Rd at Underhill Dr (SE),"B/Westwood | South Napa, F/Southwest Napa, S/Imola | South Napa, W/West"
2933,7276262,5,Imola Ave at Jefferson St,"B/Westwood | South Napa, F/Southwest Napa, S/Imola | South Napa"
2933,7276071,6,Soscol Ave at Kansas Ave South,"10/Up Valley Connector, 11/Napa-Vallejo Connector, B/Westwood | South Napa, F/Southwest Napa, G/Coombs | South Napa"
2933,7276073,7,Imola and Coombs,"B/Westwood | South Napa, F/Southwest Napa, S/Imola | South Napa"
2933,2528845,8,Old Sonoma Rd at Underhill Dr NE,"B/Westwood | South Napa, F/Southwest Napa, W/West"
2933,2528986,9,1st St at Chelsea Avenue,"A/On-Demand Service , B/Westwood | South Napa, W/West"
2933,7275722,10,Soscol Gateway Transit Ctr,"10/Up Valley Connector, 10X/Up Valley Express, 11/Napa-Vallejo Connector, 11X/Napa-Vallejo Express, 21/Napa-Solano Express, 29/Napa-BART Express, B/Westwood | South Napa, C/Jefferson | Central Napa, D/Shelter | Shurtleff, E/East, E/Vintage, F/Southwest Napa, G/Coombs | South Napa, H/North Napa, N/Trancas | North Napa, S/Imola | South Napa, W/West"
2934,7275722,1,Soscol Gateway Transit Ctr,"10/Up Valley Connector, 10X/Up Valley Express, 11/Napa-Vallejo Connector, 11X/Napa-Vallejo Express, 21/Napa-Solano Express, 29/Napa-BART Express, B/Westwood | South Napa, C/Jefferson | Central Napa, D/Shelter | Shurtleff, E/East, E/Vintage, F/Southwest Napa, G/Coombs | South Napa, H/North Napa, N/Trancas | North Napa, S/Imola | South Napa, W/West"
2934,7276876,2,3rd St at Brown St (WB),"B/Westwood | South Napa, C/Jefferson | Central Napa, F/Southwest Napa, G/Coombs | South Napa, H/North Napa, N/Trancas | North Napa, W/West"
2934,7276878,3,Premium Outlets,"B/Westwood | South Napa, W/West"
2934,7276077,4,Old Sonoma Rd at Underhill Dr (SE),"B/Westwood | South Napa, F/Southwest Napa, S/Imola | South Napa, W/West"
2934,7276262,5,Imola Ave at Jefferson St,"B/Westwood | South Napa, F/Southwest Napa, S/Imola | South Napa"
2934,7276071,6,Soscol Ave at Kansas Ave South,"10/Up Valley Connector, 11/Napa-Vallejo Connector, B/Westwood | South Napa, F/Southwest Napa, G/Coombs | South Napa"
2934,7276073,7,Imola and Coombs,"B/Westwood | South Napa, F/Southwest Napa, S/Imola | South Napa"
2934,2528845,8,Old Sonoma Rd at Underhill Dr NE,"B/Westwood | South Napa, F/Southwest Napa, W/West"
2934,2528986,9,1st St at Chelsea Avenue,"A/On-Demand Service , B/Westwood | South Napa, W/West"
2934,7275722,10,Soscol Gateway Transit Ctr,"10/Up Valley Connector, 10X/Up Valley Express, 11/Napa-Vallejo Connector, 11X/Napa-Vallejo Express, 21/Napa-Solano Express, 29/Napa-BART Express, B/Westwood | South Napa, C/Jefferson | Central Napa, D/Shelter | Shurtleff, E/East, E/Vintage, F/Southwest Napa, G/Coombs | South Napa, H/North Napa, N/Trancas | North Napa, S/Imola | South Napa, W/West"
2935,7275722,1,Soscol Gateway Transit Ctr,"10/Up Valley Connector, 10X/Up Valley Express, 11/Napa-Vallejo Connector, 11X/Napa-Vallejo Express, 21/Napa-Solano Express, 29/Napa-BART Express, B/Westwood | South Napa, C/Jefferson | Central Napa, D/Shelter | Shurtleff, E/East, E/Vintage, F/Southwest Napa, G/Coombs | South Napa, H/North Napa, N/Trancas | North Napa, S/Imola | South Napa, W/West"
2935,7276876,2,3rd St at Brown St (WB),"B/Westwood | South Napa, C/Jefferson | Central Napa, F/Southwest Napa, G/Coombs | South Napa, H/North Napa, N/Trancas | North Napa, W/West"
2935,7275726,3,Napa High North,"A/On-Demand Service , C/Jefferson | Central Napa, H/North Napa, N/Trancas | North Napa"
2935,7275729,4,Claremont Way at Kaiser (NE),"A/On-Demand Service , C/Jefferson | Central Napa, H/North Napa, N/Trancas | North Napa"
2935,7293773,5,Linda Vista Ave at Redwood Rd,"C/Jefferson | Central Napa, N/Trancas | North Napa"
2936,7275722,1,Soscol Gateway Transit Ctr,"10/Up Valley Connector, 10X/Up Valley Express, 11/Napa-Vallejo Connector, 11X/Napa-Vallejo Express, 21/Napa-Solano Express, 29/Napa-BART Express, B/Westwood | South Napa, C/Jefferson | Central Napa, D/Shelter | Shurtleff, E/East, E/Vintage, F/Southwest Napa, G/Coombs | South Napa, H/North Napa, N/Trancas | North Napa, S/Imola | South Napa, W/West"
2936,7276876,2,3rd St at Brown St (WB),"B/Westwood | South Napa, C/Jefferson | Central Napa, F/Southwest Napa, G/Coombs | South Napa, H/North Napa, N/Trancas | North Napa, W/West"
2936,7275726,3,Napa High North,"A/On-Demand Service , C/Jefferson | Central Napa, H/North Napa, N/Trancas | North Napa"
2936,7275729,4,Claremont Way at Kaiser (NE),"A/On-Demand Service , C/Jefferson | Central Napa, H/North Napa, N/Trancas | North Napa"
2936,7293773,5,Linda Vista Ave at Redwood Rd,"C/Jefferson | Central Napa, N/Trancas | North Napa"
2937,7275722,1,Soscol Gateway Transit Ctr,"10/Up Valley Connector, 10X/Up Valley Express, 11/Napa-Vallejo Connector, 11X/Napa-Vallejo Express, 21/Napa-Solano Express, 29/Napa-BART Express, B/Westwood | South Napa, C/Jefferson | Central Napa, D/Shelter | Shurtleff, E/East, E/Vintage, F/Southwest Napa, G/Coombs | South Napa, H/North Napa, N/Trancas | North Napa, S/Imola | South Napa, W/West"
2937,7276550,2,Shetler Ave at Shurtleff Ave,"D/Shelter | Shurtleff, E/East"
2937,7276553,3,Chamberlain High School,"D/Shelter | Shurtleff, E/East"
2937,7276555,4,Imola Ave at Parrish Rd,"D/Shelter | Shurtleff, E/East"
2937,7276556,5,Soscol Ave at Kansas Ave North,"10/Up Valley Connector, 11/Napa-Vallejo Connector, D/Shelter | Shurtleff"
2937,7275722,6,Soscol Gateway Transit Ctr,"10/Up Valley Connector, 10X/Up Valley Express, 11/Napa-Vallejo Connector, 11X/Napa-Vallejo Express, 21/Napa-Solano Express, 29/Napa-BART Express, B/Westwood | South Napa, C/Jefferson | Central Napa, D/Shelter | Shurtleff, E/East, E/Vintage, F/Southwest Napa, G/Coombs | South Napa, H/North Napa, N/Trancas | North Napa, S/Imola | South Napa, W/West"
2938,7275722,1,Soscol Gateway Transit Ctr,"10/Up Valley Connector, 10X/Up Valley Express, 11/Napa-Vallejo Connector, 11X/Napa-Vallejo Express, 21/Napa-Solano Express, 29/Napa-BART Express, B/Westwood | South Napa, C/Jefferson | Central Napa, D/Shelter | Shurtleff, E/East, E/Vintage, F/Southwest Napa, G/Coombs | South Napa, H/North Napa, N/Trancas | North Napa, S/Imola | South Napa, W/West"
2938,7276550,2,Shetler Ave at Shurtleff Ave,"D/Shelter | Shurtleff, E/East"
2938,7276555,3,Imola Ave at Parrish Rd,"D/Shelter | Shurtleff, E/East"
2938,7276556,4,Soscol Ave at Kansas Ave North,"10/Up Valley Connector, 11/Napa-Vallejo Connector, D/Shelter | Shurtleff"
2938,7275722,5,Soscol Gateway Transit Ctr,"10/Up Valley Connector, 10X/Up Valley Express, 11/Napa-Vallejo Connector, 11X/Napa-Vallejo Express, 21/Napa-Solano Express, 29/Napa-BART Express, B/Westwood | South Napa, C/Jefferson | Central Napa, D/Shelter | Shurtleff, E/East, E/Vintage, F/Southwest Napa, G/Coombs | South Napa, H/North Napa, N/Trancas | North Napa, S/Imola | South Napa, W/West"
2939,7275722,1,Soscol Gateway Transit Ctr,"10/Up Valley Connector, 10X/Up Valley Express, 11/Napa-Vallejo Connector, 11X/Napa-Vallejo Express, 21/Napa-Solano Express, 29/Napa-BART Express, B/Westwood | South Napa, C/Jefferson | Central Napa, D/Shelter | Shurtleff, E/East, E/Vintage, F/Southwest Napa, G/Coombs | South Napa, H/North Napa, N/Trancas | North Napa, S/Imola | South Napa, W/West"
2939,2528855,2,Lincoln Ave at Soscol Ave,"E/Vintage, H/North Napa"
2939,2576348,3,Clinic Ole South,E/Vintage
2939,2528831,4,Vintage High School,"E/Vintage, H/North Napa"
2939,2529022,5,Byway St E at Salvador Ave,"E/Vintage, H/North Napa"
2939,2528932,6,Lincoln Ave at Jordan Ln,"E/Vintage, H/North Napa"
2939,7275722,7,Soscol Gateway Transit Ctr,"10/Up Valley Connector, 10X/Up Valley Express, 11/Napa-Vallejo Connector, 11X/Napa-Vallejo Express, 21/Napa-Solano Express, 29/Napa-BART Express, B/Westwood | South Napa, C/Jefferson | Central Napa, D/Shelter | Shurtleff, E/East, E/Vintage, F/Southwest Napa, G/Coombs | South Napa, H/North Napa, N/Trancas | North Napa, S/Imola | South Napa, W/West"
2940,7275722,1,Soscol Gateway Transit Ctr,"10/Up Valley Connector, 10X/Up Valley Express, 11/Napa-Vallejo Connector, 11X/Napa-Vallejo Express, 21/Napa-Solano Express, 29/Napa-BART Express, B/Westwood | South Napa, C/Jefferson | Central Napa, D/Shelter | Shurtleff, E/East, E/Vintage, F/Southwest Napa, G/Coombs | South Napa, H/North Napa, N/Trancas | North Napa, S/Imola | South Napa, W/West"
2940,2528855,2,Lincoln Ave at Soscol Ave,"E/Vintage, H/North Napa"
2940,2576348,3,Clinic Ole South,E/Vintage
2940,2528831,4,Vintage High School,"E/Vintage, H/North Napa"
2940,2529022,5,Byway St E at Salvador Ave,"E/Vintage, H/North Napa"
2940,2528932,6,Lincoln Ave at Jordan Ln,"E/Vintage, H/North Napa"
2940,7275722,7,Soscol Gateway Transit Ctr,"10/Up Valley Connector, 10X/Up Valley Express, 11/Napa-Vallejo Connector, 11X/Napa-Vallejo Express, 21/Napa-Solano Express, 29/Napa-BART Express, B/Westwood | South Napa, C/Jefferson | Central Napa, D/Shelter | Shurtleff, E/East, E/Vintage, F/Southwest Napa, G/Coombs | South Napa, H/North Napa, N/Trancas | North Napa, S/Imola | South Napa, W/West"
2941,7275722,1,Soscol Gateway Transit Ctr,"10/Up Valley Connector, 10X/Up Valley Express, 11/Napa-Vallejo Connector, 11X/Napa-Vallejo Express, 21/Napa-Solano Express, 29/Napa-BART Express, B/Westwood | South Napa, C/Jefferson | Central Napa, D/Shelter | Shurtleff, E/East, E/Vintage, F/Southwest Napa, G/Coombs | South Napa, H/North Napa, N/Trancas | North Napa, S/Imola | South Napa, W/West"
2941,7276876,2,3rd St at Brown St (WB),"B/Westwood | South Napa, C/Jefferson | Central Napa, F/Southwest Napa, G/Coombs | South Napa, H/North Napa, N/Trancas | North Napa, W/West"
2941,2528845,3,Old Sonoma Rd at Underhill Dr NE,"B/Westwood | South Napa, F/Southwest Napa, W/West"
2941,7276262,4,Imola Ave at Jefferson St,"B/Westwood | South Napa, F/Southwest Napa, S/Imola | South Napa"
2941,7276071,5,Soscol Ave at Kansas Ave South,"10/Up Valley Connector, 11/Napa-Vallejo Connector, B/Westwood | South Napa, F/Southwest Napa, G/Coombs | South Napa"
2941,7276077,6,Old Sonoma Rd at Underhill Dr (SE),"B/Westwood | South Napa, F/Southwest Napa, S/Imola | South Napa, W/West"
2941,7275722,7,Soscol Gateway Transit Ctr,"10/Up Valley Connector, 10X/Up Valley Express, 11/Napa-Vallejo Connector, 11X/Napa-Vallejo Express, 21/Napa-Solano Express, 29/Napa-BART Express, B/Westwood | South Napa, C/Jefferson | Central Napa, D/Shelter | Shurtleff, E/East, E/Vintage, F/Southwest Napa, G/Coombs | South Napa, H/North Napa, N/Trancas | North Napa, S/Imola | South Napa, W/West"
2942,7275722,1,Soscol Gateway Transit Ctr,"10/Up Valley Connector, 10X/Up Valley Express, 11/Napa-Vallejo Connector, 11X/Napa-Vallejo Express, 21/Napa-Solano Express, 29/Napa-BART Express, B/Westwood | South Napa, C/Jefferson | Central Napa, D/Shelter | Shurtleff, E/East, E/Vintage, F/Southwest Napa, G/Coombs | South Napa, H/North Napa, N/Trancas | North Napa, S/Imola | South Napa, W/West"
2942,7276876,2,3rd St at Brown St (WB),"B/Westwood | South Napa, C/Jefferson | Central Napa, F/Southwest Napa, G/Coombs | South Napa, H/North Napa, N/Trancas | North Napa, W/West"
2942,2528845,3,Old Sonoma Rd at Underhill Dr NE,"B/Westwood | South Napa, F/Southwest Napa, W/West"
2942,7276262,4,Imola Ave at Jefferson St,"B/Westwood | South Napa, F/Southwest Napa, S/Imola | South Napa"
2942,7276071,5,Soscol Ave at Kansas Ave South,"10/Up Valley Connector, 11/Napa-Vallejo Connector, B/Westwood | South Napa, F/Southwest Napa, G/Coombs | South Napa"
2942,7276077,6,Old Sonoma Rd at Underhill Dr (SE),"B/Westwood | South Napa, F/Southwest Napa, S/Imola | South Napa, W/West"
2942,7275722,7,Soscol Gateway Transit Ctr,"10/Up Valley Connector, 10X/Up Valley Express, 11/Napa-Vallejo Connector, 11X/Napa-Vallejo Express, 21/Napa-Solano Express, 29/Napa-BART Express, B/Westwood | South Napa, C/Jefferson | Central Napa, D/Shelter | Shurtleff, E/East, E/Vintage, F/Southwest Napa, G/Coombs | South Napa, H/North Napa, N/Trancas | North Napa, S/Imola | South Napa, W/West"
2943,7275722,1,Soscol Gateway Transit Ctr,"10/Up Valley Connector, 10X/Up Valley Express, 11/Napa-Vallejo Connector, 11X/Napa-Vallejo Express, 21/Napa-Solano Express, 29/Napa-BART Express, B/Westwood | South Napa, C/Jefferson | Central Napa, D/Shelter | Shurtleff, E/East, E/Vintage, F/Southwest Napa, G/Coombs | South Napa, H/North Napa, N/Trancas | North Napa, S/Imola | South Napa, W/West"
2943,2576355,2,Coombs St and Elm St South,G/Coombs | South Napa
2943,7276071,3,Soscol Ave at Kansas Ave South,"10/Up Valley Connector, 11/Napa-Vallejo Connector, B/Westwood | South Napa, F/Southwest Napa, G/Coombs | South Napa"
2943,2528960,4,Coombs St at Elm St,G/Coombs | South Napa
2943,7275722,5,Soscol Gateway Transit Ctr,"10/Up Valley Connector, 10X/Up Valley Express, 11/Napa-Vallejo Connector, 11X/Napa-Vallejo Express, 21/Napa-Solano Express, 29/Napa-BART Express, B/Westwood | South Napa, C/Jefferson | Central Napa, D/Shelter | Shurtleff, E/East, E/Vintage, F/Southwest Napa, G/Coombs | South Napa, H/North Napa, N/Trancas | North Napa, S/Imola | South Napa, W/West"
2944,7275722,1,Soscol Gateway Transit Ctr,"10/Up Valley Connector, 10X/Up Valley Express, 11/Napa-Vallejo Connector, 11X/Napa-Vallejo Express, 21/Napa-Solano Express, 29/Napa-BART Express, B/Westwood | South Napa, C/Jefferson | Central Napa, D/Shelter | Shurtleff, E/East, E/Vintage, F/Southwest Napa, G/Coombs | South Napa, H/North Napa, N/Trancas | North Napa, S/Imola | South Napa, W/West"
2944,2576355,2,Coombs St and Elm St South,G/Coombs | South Napa
2944,7276071,3,Soscol Ave at Kansas Ave South,"10/Up Valley Connector, 11/Napa-Vallejo Connector, B/Westwood | South Napa, F/Southwest Napa, G/Coombs | South Napa"
2944,2528960,4,Coombs St at Elm St,G/Coombs | South Napa
2944,7275722,5,Soscol Gateway Transit Ctr,"10/Up Valley Connector, 10X/Up Valley Express, 11/Napa-Vallejo Connector, 11X/Napa-Vallejo Express, 21/Napa-Solano Express, 29/Napa-BART Express, B/Westwood | South Napa, C/Jefferson | Central Napa, D/Shelter | Shurtleff, E/East, E/Vintage, F/Southwest Napa, G/Coombs | South Napa, H/North Napa, N/Trancas | North Napa, S/Imola | South Napa, W/West"
2947,7283933,1,Calistoga Lincoln Bridge South,"10/Up Valley Connector, 10X/Up Valley Express"
2947,7285698,2,St Helena Post Office,10/Up Valley Connector
2947,7283915,3,Yountville Park & Ride,"10/Up Valley Connector, 10X/Up Valley Express"
2947,2528992,4,Yountville Veterans Home,"10/Up Valley Connector, Yountville Bee Line/"
2947,7275731,5,Redwood Park n Ride,"10/Up Valley Connector, 10X/Up Valley Express, 11/Napa-Vallejo Connector, 11X/Napa-Vallejo Express, 29/Napa-BART Express, H/North Napa"
2947,7285715,6,Trancas St at Villa Ln (SW),"10/Up Valley Connector, 11/Napa-Vallejo Connector, A/On-Demand Service , E/Vintage"
2947,7275898,7,Soscol Ave at Lincoln Ave South,"10/Up Valley Connector, 11/Napa-Vallejo Connector"
2947,7275722,8,Soscol Gateway Transit Ctr,"10/Up Valley Connector, 10X/Up Valley Express, 11/Napa-Vallejo Connector, 11X/Napa-Vallejo Express, 21/Napa-Solano Express, 29/Napa-BART Express, B/Westwood | South Napa, C/Jefferson | Central Napa, D/Shelter | Shurtleff, E/East, E/Vintage, F/Southwest Napa, G/Coombs | South Napa, H/North Napa, N/Trancas | North Napa, S/Imola | South Napa, W/West"
2947,7276071,9,Soscol Ave at Kansas Ave South,"10/Up Valley Connector, 11/Napa-Vallejo Connector, B/Westwood | South Napa, F/Southwest Napa, G/Coombs | South Napa"
2947,7278073,10,Napa Valley College,"10/Up Valley Connector, 11/Napa-Vallejo Connector, 11X/Napa-Vallejo Express, 21/Napa-Solano Express"
2948,7283933,1,Calistoga Lincoln Bridge South,"10/Up Valley Connector, 10X/Up Valley Express"
2948,7285698,2,St Helena Post Office,10/Up Valley Connector
2948,7283915,3,Yountville Park & Ride,"10/Up Valley Connector, 10X/Up Valley Express"
2948,2528992,4,Yountville Veterans Home,"10/Up Valley Connector, Yountville Bee Line/"
2948,7275731,5,Redwood Park n Ride,"10/Up Valley Connector, 10X/Up Valley Express, 11/Napa-Vallejo Connector, 11X/Napa-Vallejo Express, 29/Napa-BART Express, H/North Napa"
2948,7285715,6,Trancas St at Villa Ln (SW),"10/Up Valley Connector, 11/Napa-Vallejo Connector, A/On-Demand Service , E/Vintage"
2948,7275898,7,Soscol Ave at Lincoln Ave South,"10/Up Valley Connector, 11/Napa-Vallejo Connector"
2948,7275722,8,Soscol Gateway Transit Ctr,"10/Up Valley Connector, 10X/Up Valley Express, 11/Napa-Vallejo Connector, 11X/Napa-Vallejo Express, 21/Napa-Solano Express, 29/Napa-BART Express, B/Westwood | South Napa, C/Jefferson | Central Napa, D/Shelter | Shurtleff, E/East, E/Vintage, F/Southwest Napa, G/Coombs | South Napa, H/North Napa, N/Trancas | North Napa, S/Imola | South Napa, W/West"
2948,7276071,9,Soscol Ave at Kansas Ave South,"10/Up Valley Connector, 11/Napa-Vallejo Connector, B/Westwood | South Napa, F/Southwest Napa, G/Coombs | South Napa"
2949,7276556,1,Soscol Ave at Kansas Ave North,"10/Up Valley Connector, 11/Napa-Vallejo Connector, D/Shelter | Shurtleff"
2949,7275722,2,Soscol Gateway Transit Ctr,"10/Up Valley Connector, 10X/Up Valley Express, 11/Napa-Vallejo Connector, 11X/Napa-Vallejo Express, 21/Napa-Solano Express, 29/Napa-BART Express, B/Westwood | South Napa, C/Jefferson | Central Napa, D/Shelter | Shurtleff, E/East, E/Vintage, F/Southwest Napa, G/Coombs | South Napa, H/North Napa, N/Trancas | North Napa, S/Imola | South Napa, W/West"
2949,7283900,3,Soscol Ave at Lincoln Ave North,"10/Up Valley Connector, 11/Napa-Vallejo Connector"
2949,7283908,4,Queen of the Valley Hospital,"10/Up Valley Connector, 11/Napa-Vallejo Connector, A/On-Demand Service , E/Vintage"
2949,7275731,5,Redwood Park n Ride,"10/Up Valley Connector, 10X/Up Valley Express, 11/Napa-Vallejo Connector, 11X/Napa-Vallejo Express, 29/Napa-BART Express, H/North Napa"
2949,7283915,6,Yountville Park & Ride,"10/Up Valley Connector, 10X/Up Valley Express"
2949,2528992,7,Yountville Veterans Home,"10/Up Valley Connector, Yountville Bee Line/"
2949,7283924,8,Main St. at Pine St.,"10/Up Valley Connector, 10X/Up Valley Express"
2949,7283931,9,Highway 29 at Fair Way,10/Up Valley Connector
2949,7283933,10,Calistoga Lincoln Bridge South,"10/Up Valley Connector, 10X/Up Valley Express"
2951,7275731,1,Redwood Park n Ride,"10/Up Valley Connector, 10X/Up Valley Express, 11/Napa-Vallejo Connector, 11X/Napa-Vallejo Express, 29/Napa-BART Express, H/North Napa"
2951,7285714,2,Queen of the Valley,"10/Up Valley Connector, 11/Napa-Vallejo Connector, A/On-Demand Service "
2951,7275898,3,Soscol Ave at Lincoln Ave South,"10/Up Valley Connector, 11/Napa-Vallejo Connector"
2951,7275722,4,Soscol Gateway Transit Ctr,"10/Up Valley Connector, 10X/Up Valley Express, 11/Napa-Vallejo Connector, 11X/Napa-Vallejo Express, 21/Napa-Solano Express, 29/Napa-BART Express, B/Westwood | South Napa, C/Jefferson | Central Napa, D/Shelter | Shurtleff, E/East, E/Vintage, F/Southwest Napa, G/Coombs | South Napa, H/North Napa, N/Trancas | North Napa, S/Imola | South Napa, W/West"
2951,7276071,5,Soscol Ave at Kansas Ave South,"10/Up Valley Connector, 11/Napa-Vallejo Connector, B/Westwood | South Napa, F/Southwest Napa, G/Coombs | South Napa"
2951,7278073,6,Napa Valley College,"10/Up Valley Connector, 11/Napa-Vallejo Connector, 11X/Napa-Vallejo Express, 21/Napa-Solano Express"
2951,7289137,7,Health and Human Services,11/Napa-Vallejo Connector
2951,7291064,8,Devlin Rd & Gateway Rd (SB),11/Napa-Vallejo Connector
2951,7291066,9,Rio del Mar at Hwy 29 (7-11),"11/Napa-Vallejo Connector, ACT/American Canyon Transit"
2951,7291070,10,American Canyon Senior Center (SB),"11/Napa-Vallejo Connector, ACT/American Canyon Transit"
2951,7293760,11,Mini Dr/Elliot,"11/Napa-Vallejo Connector, ACT/American Canyon Transit"
2951,7291073,12,Sutter Hospital SB,11/Napa-Vallejo Connector
2951,7291074,13,Kaiser Hospital North ,11/Napa-Vallejo Connector
2951,7289124,14,Sereno Transfer Ctr,11/Napa-Vallejo Connector
2951,7291075,15,Vallejo Ferry Terminal South,11/Napa-Vallejo Connector
2951,7291076,16,Vallejo Transit Ctr,11/Napa-Vallejo Connector
2951,7277462,17,Vallejo Ferry Terminal,"11/Napa-Vallejo Connector, 11X/Napa-Vallejo Express"
2952,7275731,1,Redwood Park n Ride,"10/Up Valley Connector, 10X/Up Valley Express, 11/Napa-Vallejo Connector, 11X/Napa-Vallejo Express, 29/Napa-BART Express, H/North Napa"
2952,7285714,2,Queen of the Valley,"10/Up Valley Connector, 11/Napa-Vallejo Connector, A/On-Demand Service "
2952,7275898,3,Soscol Ave at Lincoln Ave South,"10/Up Valley Connector, 11/Napa-Vallejo Connector"
2952,7275722,4,Soscol Gateway Transit Ctr,"10/Up Valley Connector, 10X/Up Valley Express, 11/Napa-Vallejo Connector, 11X/Napa-Vallejo Express, 21/Napa-Solano Express, 29/Napa-BART Express, B/Westwood | South Napa, C/Jefferson | Central Napa, D/Shelter | Shurtleff, E/East, E/Vintage, F/Southwest Napa, G/Coombs | South Napa, H/North Napa, N/Trancas | North Napa, S/Imola | South Napa, W/West"
2952,7276071,5,Soscol Ave at Kansas Ave South,"10/Up Valley Connector, 11/Napa-Vallejo Connector, B/Westwood | South Napa, F/Southwest Napa, G/Coombs | South Napa"
2952,7291064,6,Devlin Rd & Gateway Rd (SB),11/Napa-Vallejo Connector
2952,7291066,7,Rio del Mar at Hwy 29 (7-11),"11/Napa-Vallejo Connector, ACT/American Canyon Transit"
2952,7291070,8,American Canyon Senior Center (SB),"11/Napa-Vallejo Connector, ACT/American Canyon Transit"
2952,7293760,9,Mini Dr/Elliot,"11/Napa-Vallejo Connector, ACT/American Canyon Transit"
2952,7291073,10,Sutter Hospital SB,11/Napa-Vallejo Connector
2952,7291074,11,Kaiser Hospital North ,11/Napa-Vallejo Connector
2952,7289124,12,Sereno Transfer Ctr,11/Napa-Vallejo Connector
2952,7291075,13,Vallejo Ferry Terminal South,11/Napa-Vallejo Connector
2952,7291076,14,Vallejo Transit Ctr,11/Napa-Vallejo Connector
2952,7277462,15,Vallejo Ferry Terminal,"11/Napa-Vallejo Connector, 11X/Napa-Vallejo Express"
2953,7275731,1,Redwood Park n Ride,"10/Up Valley Connector, 10X/Up Valley Express, 11/Napa-Vallejo Connector, 11X/Napa-Vallejo Express, 29/Napa-BART Express, H/North Napa"
2953,7285714,2,Queen of the Valley,"10/Up Valley Connector, 11/Napa-Vallejo Connector, A/On-Demand Service "
2953,7275898,3,Soscol Ave at Lincoln Ave South,"10/Up Valley Connector, 11/Napa-Vallejo Connector"
2953,7275722,4,Soscol Gateway Transit Ctr,"10/Up Valley Connector, 10X/Up Valley Express, 11/Napa-Vallejo Connector, 11X/Napa-Vallejo Express, 21/Napa-Solano Express, 29/Napa-BART Express, B/Westwood | South Napa, C/Jefferson | Central Napa, D/Shelter | Shurtleff, E/East, E/Vintage, F/Southwest Napa, G/Coombs | South Napa, H/North Napa, N/Trancas | North Napa, S/Imola | South Napa, W/West"
2953,7276071,5,Soscol Ave at Kansas Ave South,"10/Up Valley Connector, 11/Napa-Vallejo Connector, B/Westwood | South Napa, F/Southwest Napa, G/Coombs | South Napa"
2953,7291064,6,Devlin Rd & Gateway Rd (SB),11/Napa-Vallejo Connector
2953,7291066,7,Rio del Mar at Hwy 29 (7-11),"11/Napa-Vallejo Connector, ACT/American Canyon Transit"
2953,7291070,8,American Canyon Senior Center (SB),"11/Napa-Vallejo Connector, ACT/American Canyon Transit"
2953,7293760,9,Mini Dr/Elliot,"11/Napa-Vallejo Connector, ACT/American Canyon Transit"
2953,7291073,10,Sutter Hospital SB,11/Napa-Vallejo Connector
2953,7291074,11,Kaiser Hospital North ,11/Napa-Vallejo Connector
2953,7289124,12,Sereno Transfer Ctr,11/Napa-Vallejo Connector
2953,7291075,13,Vallejo Ferry Terminal South,11/Napa-Vallejo Connector
2953,7291076,14,Vallejo Transit Ctr,11/Napa-Vallejo Connector
2953,7277462,15,Vallejo Ferry Terminal,"11/Napa-Vallejo Connector, 11X/Napa-Vallejo Express"
2954,7275731,1,Redwood Park n Ride,"10/Up Valley Connector, 10X/Up Valley Express, 11/Napa-Vallejo Connector, 11X/Napa-Vallejo Express, 29/Napa-BART Express, H/North Napa"
2954,4160258,2,Imola Park and Ride (SB),"11X/Napa-Vallejo Express, 29/Napa-BART Express"
2954,7278615,3,American Canyon Post Office,"11X/Napa-Vallejo Express, 29/Napa-BART Express"
2954,7277462,4,Vallejo Ferry Terminal,"11/Napa-Vallejo Connector, 11X/Napa-Vallejo Express"
2955,7275722,1,Soscol Gateway Transit Ctr,"10/Up Valley Connector, 10X/Up Valley Express, 11/Napa-Vallejo Connector, 11X/Napa-Vallejo Express, 21/Napa-Solano Express, 29/Napa-BART Express, B/Westwood | South Napa, C/Jefferson | Central Napa, D/Shelter | Shurtleff, E/East, E/Vintage, F/Southwest Napa, G/Coombs | South Napa, H/North Napa, N/Trancas | North Napa, S/Imola | South Napa, W/West"
2955,7278073,2,Napa Valley College,"10/Up Valley Connector, 11/Napa-Vallejo Connector, 11X/Napa-Vallejo Express, 21/Napa-Solano Express"
2955,7279774,3,Fairfield Transportation Ctr,21/Napa-Solano Express
2955,7279773,4,Suisun City Train Depot,21/Napa-Solano Express
2956,7282218,1,El Cerrito Del Norte BART Station,29/Napa-BART Express
2956,7277463,2,American Canyon Post Office (NB),"11X/Napa-Vallejo Express, 29/Napa-BART Express"
2956,4160257,3,Imola Park and Ride (NB),"11X/Napa-Vallejo Express, 29/Napa-BART Express"
2956,7275731,4,Redwood Park n Ride,"10/Up Valley Connector, 10X/Up Valley Express, 11/Napa-Vallejo Connector, 11X/Napa-Vallejo Express, 29/Napa-BART Express, H/North Napa"
2959,7278073,1,Napa Valley College,"10/Up Valley Connector, 11/Napa-Vallejo Connector, 11X/Napa-Vallejo Express, 21/Napa-Solano Express"
2959,7276556,2,Soscol Ave at Kansas Ave North,"10/Up Valley Connector, 11/Napa-Vallejo Connector, D/Shelter | Shurtleff"
2959,7275722,3,Soscol Gateway Transit Ctr,"10/Up Valley Connector, 10X/Up Valley Express, 11/Napa-Vallejo Connector, 11X/Napa-Vallejo Express, 21/Napa-Solano Express, 29/Napa-BART Express, B/Westwood | South Napa, C/Jefferson | Central Napa, D/Shelter | Shurtleff, E/East, E/Vintage, F/Southwest Napa, G/Coombs | South Napa, H/North Napa, N/Trancas | North Napa, S/Imola | South Napa, W/West"
2959,7283900,4,Soscol Ave at Lincoln Ave North,"10/Up Valley Connector, 11/Napa-Vallejo Connector"
2959,7283908,5,Queen of the Valley Hospital,"10/Up Valley Connector, 11/Napa-Vallejo Connector, A/On-Demand Service , E/Vintage"
2959,7275731,6,Redwood Park n Ride,"10/Up Valley Connector, 10X/Up Valley Express, 11/Napa-Vallejo Connector, 11X/Napa-Vallejo Express, 29/Napa-BART Express, H/North Napa"
2959,7283915,7,Yountville Park & Ride,"10/Up Valley Connector, 10X/Up Valley Express"
2959,2528992,8,Yountville Veterans Home,"10/Up Valley Connector, Yountville Bee Line/"
2959,7283924,9,Main St. at Pine St.,"10/Up Valley Connector, 10X/Up Valley Express"
2959,7283931,10,Highway 29 at Fair Way,10/Up Valley Connector
2959,7283933,11,Calistoga Lincoln Bridge South,"10/Up Valley Connector, 10X/Up Valley Express"
2960,7276556,1,Soscol Ave at Kansas Ave North,"10/Up Valley Connector, 11/Napa-Vallejo Connector, D/Shelter | Shurtleff"
2960,7275722,2,Soscol Gateway Transit Ctr,"10/Up Valley Connector, 10X/Up Valley Express, 11/Napa-Vallejo Connector, 11X/Napa-Vallejo Express, 21/Napa-Solano Express, 29/Napa-BART Express, B/Westwood | South Napa, C/Jefferson | Central Napa, D/Shelter | Shurtleff, E/East, E/Vintage, F/Southwest Napa, G/Coombs | South Napa, H/North Napa, N/Trancas | North Napa, S/Imola | South Napa, W/West"
2960,7283900,3,Soscol Ave at Lincoln Ave North,"10/Up Valley Connector, 11/Napa-Vallejo Connector"
2960,7283908,4,Queen of the Valley Hospital,"10/Up Valley Connector, 11/Napa-Vallejo Connector, A/On-Demand Service , E/Vintage"
2960,7275731,5,Redwood Park n Ride,"10/Up Valley Connector, 10X/Up Valley Express, 11/Napa-Vallejo Connector, 11X/Napa-Vallejo Express, 29/Napa-BART Express, H/North Napa"
2960,7283915,6,Yountville Park & Ride,"10/Up Valley Connector, 10X/Up Valley Express"
2960,2528992,7,Yountville Veterans Home,"10/Up Valley Connector, Yountville Bee Line/"
2960,7283924,8,Main St. at Pine St.,"10/Up Valley Connector, 10X/Up Valley Express"
2960,7283931,9,Highway 29 at Fair Way,10/Up Valley Connector
2960,7283933,10,Calistoga Lincoln Bridge South,"10/Up Valley Connector, 10X/Up Valley Express"
2961,7283933,1,Calistoga Lincoln Bridge South,"10/Up Valley Connector, 10X/Up Valley Express"
2961,7285698,2,St Helena Post Office,10/Up Valley Connector
2961,7283915,3,Yountville Park & Ride,"10/Up Valley Connector, 10X/Up Valley Express"
2961,2528992,4,Yountville Veterans Home,"10/Up Valley Connector, Yountville Bee Line/"
2961,7275731,5,Redwood Park n Ride,"10/Up Valley Connector, 10X/Up Valley Express, 11/Napa-Vallejo Connector, 11X/Napa-Vallejo Express, 29/Napa-BART Express, H/North Napa"
2961,7285715,6,Trancas St at Villa Ln (SW),"10/Up Valley Connector, 11/Napa-Vallejo Connector, A/On-Demand Service , E/Vintage"
2961,7275898,7,Soscol Ave at Lincoln Ave South,"10/Up Valley Connector, 11/Napa-Vallejo Connector"
2961,7275722,8,Soscol Gateway Transit Ctr,"10/Up Valley Connector, 10X/Up Valley Express, 11/Napa-Vallejo Connector, 11X/Napa-Vallejo Express, 21/Napa-Solano Express, 29/Napa-BART Express, B/Westwood | South Napa, C/Jefferson | Central Napa, D/Shelter | Shurtleff, E/East, E/Vintage, F/Southwest Napa, G/Coombs | South Napa, H/North Napa, N/Trancas | North Napa, S/Imola | South Napa, W/West"
2961,7276071,9,Soscol Ave at Kansas Ave South,"10/Up Valley Connector, 11/Napa-Vallejo Connector, B/Westwood | South Napa, F/Southwest Napa, G/Coombs | South Napa"
2963,7277462,1,Vallejo Ferry Terminal,"11/Napa-Vallejo Connector, 11X/Napa-Vallejo Express"
2963,7289124,2,Sereno Transfer Ctr,11/Napa-Vallejo Connector
2963,7289125,3,Kaiser Hospital,11/Napa-Vallejo Connector
2963,7289126,4,Sutter Hospital NB,11/Napa-Vallejo Connector
2963,7289127,5,Mini Dr at Elliott Dr,11/Napa-Vallejo Connector
2963,7289129,6,American Canyon Senior Center (NB),11/Napa-Vallejo Connector
2963,7289133,7,Rio del Mar and Hwy 29 (7-11),11/Napa-Vallejo Connector
2963,7289135,8,Devlin Rd at Airport Blvd,11/Napa-Vallejo Connector
2963,2576358,9,Napa Valley Corporate Dr at Napa Valley Corporate Way North,11/Napa-Vallejo Connector
2963,7278073,10,Napa Valley College,"10/Up Valley Connector, 11/Napa-Vallejo Connector, 11X/Napa-Vallejo Express, 21/Napa-Solano Express"
2963,7276556,11,Soscol Ave at Kansas Ave North,"10/Up Valley Connector, 11/Napa-Vallejo Connector, D/Shelter | Shurtleff"
2963,7275722,12,Soscol Gateway Transit Ctr,"10/Up Valley Connector, 10X/Up Valley Express, 11/Napa-Vallejo Connector, 11X/Napa-Vallejo Express, 21/Napa-Solano Express, 29/Napa-BART Express, B/Westwood | South Napa, C/Jefferson | Central Napa, D/Shelter | Shurtleff, E/East, E/Vintage, F/Southwest Napa, G/Coombs | South Napa, H/North Napa, N/Trancas | North Napa, S/Imola | South Napa, W/West"
2963,7283900,13,Soscol Ave at Lincoln Ave North,"10/Up Valley Connector, 11/Napa-Vallejo Connector"
2963,7283908,14,Queen of the Valley Hospital,"10/Up Valley Connector, 11/Napa-Vallejo Connector, A/On-Demand Service , E/Vintage"
2963,7275731,15,Redwood Park n Ride,"10/Up Valley Connector, 10X/Up Valley Express, 11/Napa-Vallejo Connector, 11X/Napa-Vallejo Express, 29/Napa-BART Express, H/North Napa"
2964,7277462,1,Vallejo Ferry Terminal,"11/Napa-Vallejo Connector, 11X/Napa-Vallejo Express"
2964,7289124,2,Sereno Transfer Ctr,11/Napa-Vallejo Connector
2964,7289125,3,Kaiser Hospital,11/Napa-Vallejo Connector
2964,7289126,4,Sutter Hospital NB,11/Napa-Vallejo Connector
2964,7289127,5,Mini Dr at Elliott Dr,11/Napa-Vallejo Connector
2964,7289129,6,American Canyon Senior Center (NB),11/Napa-Vallejo Connector
2964,7289133,7,Rio del Mar and Hwy 29 (7-11),11/Napa-Vallejo Connector
2964,7289135,8,Devlin Rd at Airport Blvd,11/Napa-Vallejo Connector
2964,7276556,9,Soscol Ave at Kansas Ave North,"10/Up Valley Connector, 11/Napa-Vallejo Connector, D/Shelter | Shurtleff"
2964,7275722,10,Soscol Gateway Transit Ctr,"10/Up Valley Connector, 10X/Up Valley Express, 11/Napa-Vallejo Connector, 11X/Napa-Vallejo Express, 21/Napa-Solano Express, 29/Napa-BART Express, B/Westwood | South Napa, C/Jefferson | Central Napa, D/Shelter | Shurtleff, E/East, E/Vintage, F/Southwest Napa, G/Coombs | South Napa, H/North Napa, N/Trancas | North Napa, S/Imola | South Napa, W/West"
2964,7283900,11,Soscol Ave at Lincoln Ave North,"10/Up Valley Connector, 11/Napa-Vallejo Connector"
2964,7283908,12,Queen of the Valley Hospital,"10/Up Valley Connector, 11/Napa-Vallejo Connector, A/On-Demand Service , E/Vintage"
2964,7275731,13,Redwood Park n Ride,"10/Up Valley Connector, 10X/Up Valley Express, 11/Napa-Vallejo Connector, 11X/Napa-Vallejo Express, 29/Napa-BART Express, H/North Napa"
2965,7277462,1,Vallejo Ferry Terminal,"11/Napa-Vallejo Connector, 11X/Napa-Vallejo Express"
2965,7289124,2,Sereno Transfer Ctr,11/Napa-Vallejo Connector
2965,7289125,3,Kaiser Hospital,11/Napa-Vallejo Connector
2965,7289126,4,Sutter Hospital NB,11/Napa-Vallejo Connector
2965,7289127,5,Mini Dr at Elliott Dr,11/Napa-Vallejo Connector
2965,7289129,6,American Canyon Senior Center (NB),11/Napa-Vallejo Connector
2965,7289133,7,Rio del Mar and Hwy 29 (7-11),11/Napa-Vallejo Connector
2965,7289135,8,Devlin Rd at Airport Blvd,11/Napa-Vallejo Connector
2965,7276556,9,Soscol Ave at Kansas Ave North,"10/Up Valley Connector, 11/Napa-Vallejo Connector, D/Shelter | Shurtleff"
2965,7275722,10,Soscol Gateway Transit Ctr,"10/Up Valley Connector, 10X/Up Valley Express, 11/Napa-Vallejo Connector, 11X/Napa-Vallejo Express, 21/Napa-Solano Express, 29/Napa-BART Express, B/Westwood | South Napa, C/Jefferson | Central Napa, D/Shelter | Shurtleff, E/East, E/Vintage, F/Southwest Napa, G/Coombs | South Napa, H/North Napa, N/Trancas | North Napa, S/Imola | South Napa, W/West"
2965,7283900,11,Soscol Ave at Lincoln Ave North,"10/Up Valley Connector, 11/Napa-Vallejo Connector"
2965,7283908,12,Queen of the Valley Hospital,"10/Up Valley Connector, 11/Napa-Vallejo Connector, A/On-Demand Service , E/Vintage"
2965,7275731,13,Redwood Park n Ride,"10/Up Valley Connector, 10X/Up Valley Express, 11/Napa-Vallejo Connector, 11X/Napa-Vallejo Express, 29/Napa-BART Express, H/North Napa"
2967,7279773,1,Suisun City Train Depot,21/Napa-Solano Express
2967,7279774,2,Fairfield Transportation Ctr,21/Napa-Solano Express
2967,7278073,3,Napa Valley College,"10/Up Valley Connector, 11/Napa-Vallejo Connector, 11X/Napa-Vallejo Express, 21/Napa-Solano Express"
2967,7275722,4,Soscol Gateway Transit Ctr,"10/Up Valley Connector, 10X/Up Valley Express, 11/Napa-Vallejo Connector, 11X/Napa-Vallejo Express, 21/Napa-Solano Express, 29/Napa-BART Express, B/Westwood | South Napa, C/Jefferson | Central Napa, D/Shelter | Shurtleff, E/East, E/Vintage, F/Southwest Napa, G/Coombs | South Napa, H/North Napa, N/Trancas | North Napa, S/Imola | South Napa, W/West"
2968,7275731,1,Redwood Park n Ride,"10/Up Valley Connector, 10X/Up Valley Express, 11/Napa-Vallejo Connector, 11X/Napa-Vallejo Express, 29/Napa-BART Express, H/North Napa"
2968,4160258,2,Imola Park and Ride (SB),"11X/Napa-Vallejo Express, 29/Napa-BART Express"
2968,7278615,3,American Canyon Post Office,"11X/Napa-Vallejo Express, 29/Napa-BART Express"
2968,7282218,4,El Cerrito Del Norte BART Station,29/Napa-BART Express
3453,7293773,1,Linda Vista Ave at Redwood Rd,"C/Jefferson | Central Napa, N/Trancas | North Napa"
3453,7275893,2,Claremont Way at Kaiser,"A/On-Demand Service , C/Jefferson | Central Napa, H/North Napa, N/Trancas | North Napa"
3453,7275896,3,Napa High School,"A/On-Demand Service , C/Jefferson | Central Napa, H/North Napa, N/Trancas | North Napa"
3453,7276891,4,3rd St at Brown St,"B/Westwood | South Napa, C/Jefferson | Central Napa, F/Southwest Napa, G/Coombs | South Napa, H/North Napa, N/Trancas | North Napa, W/West"
3453,7275722,5,Soscol Gateway Transit Ctr,"10/Up Valley Connector, 10X/Up Valley Express, 11/Napa-Vallejo Connector, 11X/Napa-Vallejo Express, 21/Napa-Solano Express, 29/Napa-BART Express, B/Westwood | South Napa, C/Jefferson | Central Napa, D/Shelter | Shurtleff, E/East, E/Vintage, F/Southwest Napa, G/Coombs | South Napa, H/North Napa, N/Trancas | North Napa, S/Imola | South Napa, W/West"
3454,7293773,1,Linda Vista Ave at Redwood Rd,"C/Jefferson | Central Napa, N/Trancas | North Napa"
3454,7275893,2,Claremont Way at Kaiser,"A/On-Demand Service , C/Jefferson | Central Napa, H/North Napa, N/Trancas | North Napa"
3454,7275896,3,Napa High School,"A/On-Demand Service , C/Jefferson | Central Napa, H/North Napa, N/Trancas | North Napa"
3454,7276891,4,3rd St at Brown St,"B/Westwood | South Napa, C/Jefferson | Central Napa, F/Southwest Napa, G/Coombs | South Napa, H/North Napa, N/Trancas | North Napa, W/West"
3454,7275722,5,Soscol Gateway Transit Ctr,"10/Up Valley Connector, 10X/Up Valley Express, 11/Napa-Vallejo Connector, 11X/Napa-Vallejo Express, 21/Napa-Solano Express, 29/Napa-BART Express, B/Westwood | South Napa, C/Jefferson | Central Napa, D/Shelter | Shurtleff, E/East, E/Vintage, F/Southwest Napa, G/Coombs | South Napa, H/North Napa, N/Trancas | North Napa, S/Imola | South Napa, W/West"
4554,7277462,1,Vallejo Ferry Terminal,"11/Napa-Vallejo Connector, 11X/Napa-Vallejo Express"
4554,7277463,2,American Canyon Post Office (NB),"11X/Napa-Vallejo Express, 29/Napa-BART Express"
4554,4160257,3,Imola Park and Ride (NB),"11X/Napa-Vallejo Express, 29/Napa-BART Express"
4554,7275731,4,Redwood Park n Ride,"10/Up Valley Connector, 10X/Up Valley Express, 11/Napa-Vallejo Connector, 11X/Napa-Vallejo Express, 29/Napa-BART Express, H/North Napa"
