timetable_id,stop_id,stop_sequence,stop_name,connected_routes
2145,757874,1,Hunter Dr & Senior Center,"10/Cotati, Rohnert Park, Sonoma State University, 10T/Cotati, Rohnert Park Tripper, 12/Northern Rohnert Park, 12T/Northern Rohnert Park Tripper, 14/Northern Rohnert Park, 14T/Northern Rohnert Park Tripper"
2145,757607,2,Cotati Hub,"10/Cotati, Rohnert Park, Sonoma State University, 10T/Cotati, Rohnert Park Tripper, 26/Sebastopol, Cotati, Rohnert Park, 48/Santa Rosa, Rohnert Park, Cotati, Petaluma, 48X/Santa Rosa, Rohnert Park, Cotati, Petaluma, 52/West County Connector, 54/South County Connector"
2145,757878,3,Lancaster/Myrtle,"10/Cotati, Rohnert Park, Sonoma State University, 10T/Cotati, Rohnert Park Tripper"
2145,757794,4,E Cotati/Lancaster,"10/Cotati, Rohnert Park, Sonoma State University, 10T/Cotati, Rohnert Park Tripper, 26/Sebastopol, Cotati, Rohnert Park, 44/Petaluma, JC, SSU, Santa Rosa, 52/West County Connector"
2145,785279,5,East Cotati Ave & Santero Way,"10/Cotati, Rohnert Park, Sonoma State University, 10T/Cotati, Rohnert Park Tripper, 26/Sebastopol, Cotati, Rohnert Park, 44/Petaluma, JC, SSU, Santa Rosa, 46/Santa Rosa, Sonoma State University, Cotati Depot, 52/West County Connector"
2145,757751,7,Sonoma State University,"10/Cotati, Rohnert Park, Sonoma State University, 26/Sebastopol, Cotati, Rohnert Park, 30/Santa Rosa, Sonoma Valley, 44/Petaluma, JC, SSU, Santa Rosa, 46/Santa Rosa, Sonoma State University, Cotati Depot, 52/West County Connector"
2145,757882,8,Rancho Cotate High School,"10/Cotati, Rohnert Park, Sonoma State University, 10T/Cotati, Rohnert Park Tripper, 12/Northern Rohnert Park, 12T/Northern Rohnert Park Tripper, 14/Northern Rohnert Park, 14T/Northern Rohnert Park Tripper"
2145,757756,9,Lawrence Jones Middle School,"10/Cotati, Rohnert Park, Sonoma State University, 10T/Cotati, Rohnert Park Tripper, 12T/Northern Rohnert Park Tripper, 46/Santa Rosa, Sonoma State University, Cotati Depot"
2145,757686,10,Arlen/Santa Alicia,"10/Cotati, Rohnert Park, Sonoma State University, 10T/Cotati, Rohnert Park Tripper, 44/Petaluma, JC, SSU, Santa Rosa, 48/Santa Rosa, Rohnert Park, Cotati, Petaluma"
2145,757689,11,Commerce Blvd & RP Expressway,"10/Cotati, Rohnert Park, Sonoma State University, 10T/Cotati, Rohnert Park Tripper, 12/Northern Rohnert Park, 12T/Northern Rohnert Park Tripper, 14/Northern Rohnert Park, 14T/Northern Rohnert Park Tripper, 44/Petaluma, JC, SSU, Santa Rosa, 44X/Santa Rosa, Rohnert Park, Petaluma, 48/Santa Rosa, Rohnert Park, Cotati, Petaluma, 48X/Santa Rosa, Rohnert Park, Cotati, Petaluma, 54/South County Connector"
2145,757937,12,Lawrence Jones Middle School,"10T/Cotati, Rohnert Park Tripper, 12/Northern Rohnert Park, 12T/Northern Rohnert Park Tripper, 14/Northern Rohnert Park, 14T/Northern Rohnert Park Tripper, 46/Santa Rosa, Sonoma State University, Cotati Depot"
2145,757909,13,Raley's Town Center,"10/Cotati, Rohnert Park, Sonoma State University, 10T/Cotati, Rohnert Park Tripper, 12/Northern Rohnert Park, 12T/Northern Rohnert Park Tripper, 14/Northern Rohnert Park"
2145,757874,14,Hunter Dr & Senior Center,"10/Cotati, Rohnert Park, Sonoma State University, 10T/Cotati, Rohnert Park Tripper, 12/Northern Rohnert Park, 12T/Northern Rohnert Park Tripper, 14/Northern Rohnert Park, 14T/Northern Rohnert Park Tripper"
2150,757874,1,Hunter Dr & Senior Center,"10/Cotati, Rohnert Park, Sonoma State University, 10T/Cotati, Rohnert Park Tripper, 12/Northern Rohnert Park, 12T/Northern Rohnert Park Tripper, 14/Northern Rohnert Park, 14T/Northern Rohnert Park Tripper"
2150,757902,2,Rancho Verde Mobile Home Park,"12/Northern Rohnert Park, 12T/Northern Rohnert Park Tripper, 14/Northern Rohnert Park, 14T/Northern Rohnert Park Tripper"
2150,757904,3,Reading Cinemas (on Labath Ave),"12/Northern Rohnert Park, 12T/Northern Rohnert Park Tripper, 14/Northern Rohnert Park, 14T/Northern Rohnert Park Tripper"
2150,757927,4,Rancho Feliz Mobile Home Park ,"12/Northern Rohnert Park, 12T/Northern Rohnert Park Tripper, 14/Northern Rohnert Park, 14T/Northern Rohnert Park Tripper"
2150,757907,5,Chase Bank,"10/Cotati, Rohnert Park, Sonoma State University, 10T/Cotati, Rohnert Park Tripper, 12/Northern Rohnert Park, 12T/Northern Rohnert Park Tripper, 14/Northern Rohnert Park, 14T/Northern Rohnert Park Tripper, 54/South County Connector"
2150,757915,6,Country Club/ Golf Course,"12/Northern Rohnert Park, 12T/Northern Rohnert Park Tripper, 14/Northern Rohnert Park, 14T/Northern Rohnert Park Tripper, 54/South County Connector"
2150,757921,7,Fairway & Flores,"12/Northern Rohnert Park, 12T/Northern Rohnert Park Tripper, 14/Northern Rohnert Park, 14T/Northern Rohnert Park Tripper"
2150,757922,8,Fairway/ Country Club,"12/Northern Rohnert Park, 12T/Northern Rohnert Park Tripper, 14/Northern Rohnert Park, 14T/Northern Rohnert Park Tripper"
2150,757932,9,Snyder Ln & Holly Ave,"12/Northern Rohnert Park, 12T/Northern Rohnert Park Tripper, 14/Northern Rohnert Park, 14T/Northern Rohnert Park Tripper, 46/Santa Rosa, Sonoma State University, Cotati Depot"
2150,757937,10,Lawrence Jones Middle School,"10T/Cotati, Rohnert Park Tripper, 12/Northern Rohnert Park, 12T/Northern Rohnert Park Tripper, 14/Northern Rohnert Park, 14T/Northern Rohnert Park Tripper, 46/Santa Rosa, Sonoma State University, Cotati Depot"
2150,757882,11,Rancho Cotate High School,"10/Cotati, Rohnert Park, Sonoma State University, 10T/Cotati, Rohnert Park Tripper, 12/Northern Rohnert Park, 12T/Northern Rohnert Park Tripper, 14/Northern Rohnert Park, 14T/Northern Rohnert Park Tripper"
2150,757893,12,Country Club Dr & Civic Center Dr,"10T/Cotati, Rohnert Park Tripper, 12/Northern Rohnert Park, 12T/Northern Rohnert Park Tripper, 14/Northern Rohnert Park, 14T/Northern Rohnert Park Tripper"
2150,757894,13,Rohnert Park Library,"10T/Cotati, Rohnert Park Tripper, 12/Northern Rohnert Park, 12T/Northern Rohnert Park Tripper, 14/Northern Rohnert Park, 54/South County Connector"
2150,757696,14,Kaiser Medical Center,"12/Northern Rohnert Park, 14/Northern Rohnert Park"
2150,757584,15,Redwood Dr / Golf Course Dr (Graton Resort),"12/Northern Rohnert Park, 14/Northern Rohnert Park, 44/Petaluma, JC, SSU, Santa Rosa, 44X/Santa Rosa, Rohnert Park, Petaluma, 48/Santa Rosa, Rohnert Park, Cotati, Petaluma"
2150,757582,16,Wal-Mart (parking lot),"12/Northern Rohnert Park, 14/Northern Rohnert Park"
2150,757587,17,Labath & Martin,"12/Northern Rohnert Park, 14/Northern Rohnert Park, 44/Petaluma, JC, SSU, Santa Rosa, 44X/Santa Rosa, Rohnert Park, Petaluma"
2150,757909,18,Raley's Town Center,"10/Cotati, Rohnert Park, Sonoma State University, 10T/Cotati, Rohnert Park Tripper, 12/Northern Rohnert Park, 12T/Northern Rohnert Park Tripper, 14/Northern Rohnert Park"
2150,757874,19,Hunter Dr & Senior Center,"10/Cotati, Rohnert Park, Sonoma State University, 10T/Cotati, Rohnert Park Tripper, 12/Northern Rohnert Park, 12T/Northern Rohnert Park Tripper, 14/Northern Rohnert Park, 14T/Northern Rohnert Park Tripper"
2166,757298,1,Monte Rio (Creekside Park),"20/Russian River Area, Forestville, Sebastopol, Santa Rosa, 20X/Russian River Area, Santa Rosa, 28/Guerneville, Monte Rio"
2166,757313,2,Guerneville Safeway,"20/Russian River Area, Forestville, Sebastopol, Santa Rosa, 20X/Russian River Area, Santa Rosa, 28/Guerneville, Monte Rio, 29B/Guerneville - Sonoma Coast"
2166,757323,3,Rio Nido,"20/Russian River Area, Forestville, Sebastopol, Santa Rosa, 20X/Russian River Area, Santa Rosa"
2166,757327,4,River Rd & River Dr (East),"20/Russian River Area, Forestville, Sebastopol, Santa Rosa, 20X/Russian River Area, Santa Rosa"
2166,757330,5,Mirabel Rd Ext & River Rd,"20/Russian River Area, Forestville, Sebastopol, Santa Rosa, 20X/Russian River Area, Santa Rosa, 26/Sebastopol, Cotati, Rohnert Park"
2166,757336,6,Forestville (Downtown),"20/Russian River Area, Forestville, Sebastopol, Santa Rosa, 26/Sebastopol, Cotati, Rohnert Park"
2166,757342,7,Graton,"20/Russian River Area, Forestville, Sebastopol, Santa Rosa, 26/Sebastopol, Cotati, Rohnert Park"
2166,757770,8,Sebastopol Post Office,"20/Russian River Area, Forestville, Sebastopol, Santa Rosa, 24/Sebastopol Shuttle, 26/Sebastopol, Cotati, Rohnert Park, 29A/Santa Rosa - Sonoma Coast, 52/West County Connector"
2166,757823,9,Laguna Park Way & Sebastopol Transit Hub,"20/Russian River Area, Forestville, Sebastopol, Santa Rosa, 22/Sebastopol, Santa Rosa, 24/Sebastopol Shuttle, 29A/Santa Rosa - Sonoma Coast"
2166,757365,10,Hwy 12 & Llano Rd,"20/Russian River Area, Forestville, Sebastopol, Santa Rosa, 22/Sebastopol, Santa Rosa, 29A/Santa Rosa - Sonoma Coast"
2166,757284,11,County Admin Center (Ventura Ave),"20/Russian River Area, Forestville, Sebastopol, Santa Rosa, 20X/Russian River Area, Santa Rosa, 30/Santa Rosa, Sonoma Valley, 30X/Santa Rosa, Sonoma Valley, 44/Petaluma, JC, SSU, Santa Rosa, 44X/Santa Rosa, Rohnert Park, Petaluma, 48/Santa Rosa, Rohnert Park, Cotati, Petaluma, 48X/Santa Rosa, Rohnert Park, Cotati, Petaluma, 54/South County Connector, 57/Kaiser, County Center, SRJC Shuttle, 60X/Cloverdale, Healdsburg, Windsor, Santa Rosa"
2166,757291,12,Santa Rosa Junior College,"20/Russian River Area, Forestville, Sebastopol, Santa Rosa, 20X/Russian River Area, Santa Rosa, 29A/Santa Rosa - Sonoma Coast, 30/Santa Rosa, Sonoma Valley, 30X/Santa Rosa, Sonoma Valley, 44/Petaluma, JC, SSU, Santa Rosa, 44X/Santa Rosa, Rohnert Park, Petaluma, 48/Santa Rosa, Rohnert Park, Cotati, Petaluma, 48X/Santa Rosa, Rohnert Park, Cotati, Petaluma, 54/South County Connector, 57/Kaiser, County Center, SRJC Shuttle, 60/Cloverdale, Healdsburg, Windsor, Santa Rosa, 60X/Cloverdale, Healdsburg, Windsor, Santa Rosa, 62/Santa Rosa, County Airport"
2166,757068,13,Santa Rosa Transit Mall,"20/Russian River Area, Forestville, Sebastopol, Santa Rosa, 20X/Russian River Area, Santa Rosa, 22/Sebastopol, Santa Rosa, 29A/Santa Rosa - Sonoma Coast, 29B/Guerneville - Sonoma Coast, 30/Santa Rosa, Sonoma Valley, 30X/Santa Rosa, Sonoma Valley, 34/Santa Rosa, Sonoma, 42/Santa Rosa, Industry West Business Park, 44/Petaluma, JC, SSU, Santa Rosa, 44X/Santa Rosa, Rohnert Park, Petaluma, 46/Santa Rosa, Sonoma State University, Cotati Depot, 48/Santa Rosa, Rohnert Park, Cotati, Petaluma, 48X/Santa Rosa, Rohnert Park, Cotati, Petaluma, 54/South County Connector, 60/Cloverdale, Healdsburg, Windsor, Santa Rosa, 60X/Cloverdale, Healdsburg, Windsor, Santa Rosa, 62/Santa Rosa, County Airport"
2166,757074,14,Ac Santa Rosa Junior College,"20/Russian River Area, Forestville, Sebastopol, Santa Rosa, 20X/Russian River Area, Santa Rosa, 29A/Santa Rosa - Sonoma Coast, 30/Santa Rosa, Sonoma Valley, 30X/Santa Rosa, Sonoma Valley, 44/Petaluma, JC, SSU, Santa Rosa, 44X/Santa Rosa, Rohnert Park, Petaluma, 48/Santa Rosa, Rohnert Park, Cotati, Petaluma, 48X/Santa Rosa, Rohnert Park, Cotati, Petaluma, 54/South County Connector, 57/Kaiser, County Center, SRJC Shuttle, 60/Cloverdale, Healdsburg, Windsor, Santa Rosa, 60X/Cloverdale, Healdsburg, Windsor, Santa Rosa, 62/Santa Rosa, County Airport"
2166,757277,15,Coddingtown,"20/Russian River Area, Forestville, Sebastopol, Santa Rosa, 29A/Santa Rosa - Sonoma Coast, 30/Santa Rosa, Sonoma Valley, 30X/Santa Rosa, Sonoma Valley, 44/Petaluma, JC, SSU, Santa Rosa, 44X/Santa Rosa, Rohnert Park, Petaluma, 48/Santa Rosa, Rohnert Park, Cotati, Petaluma, 54/South County Connector"
2167,757298,1,Monte Rio (Creekside Park),"20/Russian River Area, Forestville, Sebastopol, Santa Rosa, 20X/Russian River Area, Santa Rosa, 28/Guerneville, Monte Rio"
2167,757313,2,Guerneville Safeway,"20/Russian River Area, Forestville, Sebastopol, Santa Rosa, 20X/Russian River Area, Santa Rosa, 28/Guerneville, Monte Rio, 29B/Guerneville - Sonoma Coast"
2167,757323,3,Rio Nido,"20/Russian River Area, Forestville, Sebastopol, Santa Rosa, 20X/Russian River Area, Santa Rosa"
2167,757327,4,River Rd & River Dr (East),"20/Russian River Area, Forestville, Sebastopol, Santa Rosa, 20X/Russian River Area, Santa Rosa"
2167,757330,5,Mirabel Rd Ext & River Rd,"20/Russian River Area, Forestville, Sebastopol, Santa Rosa, 20X/Russian River Area, Santa Rosa, 26/Sebastopol, Cotati, Rohnert Park"
2167,757336,6,Forestville (Downtown),"20/Russian River Area, Forestville, Sebastopol, Santa Rosa, 26/Sebastopol, Cotati, Rohnert Park"
2167,757342,7,Graton,"20/Russian River Area, Forestville, Sebastopol, Santa Rosa, 26/Sebastopol, Cotati, Rohnert Park"
2167,757770,8,Sebastopol Post Office,"20/Russian River Area, Forestville, Sebastopol, Santa Rosa, 24/Sebastopol Shuttle, 26/Sebastopol, Cotati, Rohnert Park, 29A/Santa Rosa - Sonoma Coast, 52/West County Connector"
2167,757823,9,Laguna Park Way & Sebastopol Transit Hub,"20/Russian River Area, Forestville, Sebastopol, Santa Rosa, 22/Sebastopol, Santa Rosa, 24/Sebastopol Shuttle, 29A/Santa Rosa - Sonoma Coast"
2167,757365,10,Hwy 12 & Llano Rd,"20/Russian River Area, Forestville, Sebastopol, Santa Rosa, 22/Sebastopol, Santa Rosa, 29A/Santa Rosa - Sonoma Coast"
2167,757291,11,Santa Rosa Junior College,"20/Russian River Area, Forestville, Sebastopol, Santa Rosa, 20X/Russian River Area, Santa Rosa, 29A/Santa Rosa - Sonoma Coast, 30/Santa Rosa, Sonoma Valley, 30X/Santa Rosa, Sonoma Valley, 44/Petaluma, JC, SSU, Santa Rosa, 44X/Santa Rosa, Rohnert Park, Petaluma, 48/Santa Rosa, Rohnert Park, Cotati, Petaluma, 48X/Santa Rosa, Rohnert Park, Cotati, Petaluma, 54/South County Connector, 57/Kaiser, County Center, SRJC Shuttle, 60/Cloverdale, Healdsburg, Windsor, Santa Rosa, 60X/Cloverdale, Healdsburg, Windsor, Santa Rosa, 62/Santa Rosa, County Airport"
2167,757068,12,Santa Rosa Transit Mall,"20/Russian River Area, Forestville, Sebastopol, Santa Rosa, 20X/Russian River Area, Santa Rosa, 22/Sebastopol, Santa Rosa, 29A/Santa Rosa - Sonoma Coast, 29B/Guerneville - Sonoma Coast, 30/Santa Rosa, Sonoma Valley, 30X/Santa Rosa, Sonoma Valley, 34/Santa Rosa, Sonoma, 42/Santa Rosa, Industry West Business Park, 44/Petaluma, JC, SSU, Santa Rosa, 44X/Santa Rosa, Rohnert Park, Petaluma, 46/Santa Rosa, Sonoma State University, Cotati Depot, 48/Santa Rosa, Rohnert Park, Cotati, Petaluma, 48X/Santa Rosa, Rohnert Park, Cotati, Petaluma, 54/South County Connector, 60/Cloverdale, Healdsburg, Windsor, Santa Rosa, 60X/Cloverdale, Healdsburg, Windsor, Santa Rosa, 62/Santa Rosa, County Airport"
2167,757074,13,Ac Santa Rosa Junior College,"20/Russian River Area, Forestville, Sebastopol, Santa Rosa, 20X/Russian River Area, Santa Rosa, 29A/Santa Rosa - Sonoma Coast, 30/Santa Rosa, Sonoma Valley, 30X/Santa Rosa, Sonoma Valley, 44/Petaluma, JC, SSU, Santa Rosa, 44X/Santa Rosa, Rohnert Park, Petaluma, 48/Santa Rosa, Rohnert Park, Cotati, Petaluma, 48X/Santa Rosa, Rohnert Park, Cotati, Petaluma, 54/South County Connector, 57/Kaiser, County Center, SRJC Shuttle, 60/Cloverdale, Healdsburg, Windsor, Santa Rosa, 60X/Cloverdale, Healdsburg, Windsor, Santa Rosa, 62/Santa Rosa, County Airport"
2167,757277,14,Coddingtown,"20/Russian River Area, Forestville, Sebastopol, Santa Rosa, 29A/Santa Rosa - Sonoma Coast, 30/Santa Rosa, Sonoma Valley, 30X/Santa Rosa, Sonoma Valley, 44/Petaluma, JC, SSU, Santa Rosa, 44X/Santa Rosa, Rohnert Park, Petaluma, 48/Santa Rosa, Rohnert Park, Cotati, Petaluma, 54/South County Connector"
2168,757277,1,Coddingtown,"20/Russian River Area, Forestville, Sebastopol, Santa Rosa, 29A/Santa Rosa - Sonoma Coast, 30/Santa Rosa, Sonoma Valley, 30X/Santa Rosa, Sonoma Valley, 44/Petaluma, JC, SSU, Santa Rosa, 44X/Santa Rosa, Rohnert Park, Petaluma, 48/Santa Rosa, Rohnert Park, Cotati, Petaluma, 54/South County Connector"
2168,757291,2,Santa Rosa Junior College,"20/Russian River Area, Forestville, Sebastopol, Santa Rosa, 20X/Russian River Area, Santa Rosa, 29A/Santa Rosa - Sonoma Coast, 30/Santa Rosa, Sonoma Valley, 30X/Santa Rosa, Sonoma Valley, 44/Petaluma, JC, SSU, Santa Rosa, 44X/Santa Rosa, Rohnert Park, Petaluma, 48/Santa Rosa, Rohnert Park, Cotati, Petaluma, 48X/Santa Rosa, Rohnert Park, Cotati, Petaluma, 54/South County Connector, 57/Kaiser, County Center, SRJC Shuttle, 60/Cloverdale, Healdsburg, Windsor, Santa Rosa, 60X/Cloverdale, Healdsburg, Windsor, Santa Rosa, 62/Santa Rosa, County Airport"
2168,757068,3,Santa Rosa Transit Mall,"20/Russian River Area, Forestville, Sebastopol, Santa Rosa, 20X/Russian River Area, Santa Rosa, 22/Sebastopol, Santa Rosa, 29A/Santa Rosa - Sonoma Coast, 29B/Guerneville - Sonoma Coast, 30/Santa Rosa, Sonoma Valley, 30X/Santa Rosa, Sonoma Valley, 34/Santa Rosa, Sonoma, 42/Santa Rosa, Industry West Business Park, 44/Petaluma, JC, SSU, Santa Rosa, 44X/Santa Rosa, Rohnert Park, Petaluma, 46/Santa Rosa, Sonoma State University, Cotati Depot, 48/Santa Rosa, Rohnert Park, Cotati, Petaluma, 48X/Santa Rosa, Rohnert Park, Cotati, Petaluma, 54/South County Connector, 60/Cloverdale, Healdsburg, Windsor, Santa Rosa, 60X/Cloverdale, Healdsburg, Windsor, Santa Rosa, 62/Santa Rosa, County Airport"
2168,757545,4,Laguna Park Way & Sebastopol Transit Hub,"20/Russian River Area, Forestville, Sebastopol, Santa Rosa, 22/Sebastopol, Santa Rosa, 26/Sebastopol, Cotati, Rohnert Park, 29A/Santa Rosa - Sonoma Coast, 52/West County Connector"
2168,757553,5,Graton,"20/Russian River Area, Forestville, Sebastopol, Santa Rosa, 26/Sebastopol, Cotati, Rohnert Park"
2168,757849,6,Forestville (Downtown),"20/Russian River Area, Forestville, Sebastopol, Santa Rosa, 26/Sebastopol, Cotati, Rohnert Park"
2168,757853,7,River Rd & Mirabel Rd,"20/Russian River Area, Forestville, Sebastopol, Santa Rosa, 20X/Russian River Area, Santa Rosa"
2168,757855,8,River Rd & Grays Ct (Ac Berry's Market),"20/Russian River Area, Forestville, Sebastopol, Santa Rosa, 20X/Russian River Area, Santa Rosa"
2168,757859,9,Rio Nido,"20/Russian River Area, Forestville, Sebastopol, Santa Rosa, 20X/Russian River Area, Santa Rosa"
2168,757865,10,Guerneville (Bank of America),"20/Russian River Area, Forestville, Sebastopol, Santa Rosa, 20X/Russian River Area, Santa Rosa, 28/Guerneville, Monte Rio, 29B/Guerneville - Sonoma Coast"
2168,757298,11,Monte Rio (Creekside Park),"20/Russian River Area, Forestville, Sebastopol, Santa Rosa, 20X/Russian River Area, Santa Rosa, 28/Guerneville, Monte Rio"
2169,757277,1,Coddingtown,"20/Russian River Area, Forestville, Sebastopol, Santa Rosa, 29A/Santa Rosa - Sonoma Coast, 30/Santa Rosa, Sonoma Valley, 30X/Santa Rosa, Sonoma Valley, 44/Petaluma, JC, SSU, Santa Rosa, 44X/Santa Rosa, Rohnert Park, Petaluma, 48/Santa Rosa, Rohnert Park, Cotati, Petaluma, 54/South County Connector"
2169,757291,2,Santa Rosa Junior College,"20/Russian River Area, Forestville, Sebastopol, Santa Rosa, 20X/Russian River Area, Santa Rosa, 29A/Santa Rosa - Sonoma Coast, 30/Santa Rosa, Sonoma Valley, 30X/Santa Rosa, Sonoma Valley, 44/Petaluma, JC, SSU, Santa Rosa, 44X/Santa Rosa, Rohnert Park, Petaluma, 48/Santa Rosa, Rohnert Park, Cotati, Petaluma, 48X/Santa Rosa, Rohnert Park, Cotati, Petaluma, 54/South County Connector, 57/Kaiser, County Center, SRJC Shuttle, 60/Cloverdale, Healdsburg, Windsor, Santa Rosa, 60X/Cloverdale, Healdsburg, Windsor, Santa Rosa, 62/Santa Rosa, County Airport"
2169,757068,3,Santa Rosa Transit Mall,"20/Russian River Area, Forestville, Sebastopol, Santa Rosa, 20X/Russian River Area, Santa Rosa, 22/Sebastopol, Santa Rosa, 29A/Santa Rosa - Sonoma Coast, 29B/Guerneville - Sonoma Coast, 30/Santa Rosa, Sonoma Valley, 30X/Santa Rosa, Sonoma Valley, 34/Santa Rosa, Sonoma, 42/Santa Rosa, Industry West Business Park, 44/Petaluma, JC, SSU, Santa Rosa, 44X/Santa Rosa, Rohnert Park, Petaluma, 46/Santa Rosa, Sonoma State University, Cotati Depot, 48/Santa Rosa, Rohnert Park, Cotati, Petaluma, 48X/Santa Rosa, Rohnert Park, Cotati, Petaluma, 54/South County Connector, 60/Cloverdale, Healdsburg, Windsor, Santa Rosa, 60X/Cloverdale, Healdsburg, Windsor, Santa Rosa, 62/Santa Rosa, County Airport"
2169,757542,4,Hwy 12 & Llano Rd,"20/Russian River Area, Forestville, Sebastopol, Santa Rosa, 22/Sebastopol, Santa Rosa, 29A/Santa Rosa - Sonoma Coast"
2169,757545,5,Laguna Park Way & Sebastopol Transit Hub,"20/Russian River Area, Forestville, Sebastopol, Santa Rosa, 22/Sebastopol, Santa Rosa, 26/Sebastopol, Cotati, Rohnert Park, 29A/Santa Rosa - Sonoma Coast, 52/West County Connector"
2169,757553,6,Graton,"20/Russian River Area, Forestville, Sebastopol, Santa Rosa, 26/Sebastopol, Cotati, Rohnert Park"
2169,757849,7,Forestville (Downtown),"20/Russian River Area, Forestville, Sebastopol, Santa Rosa, 26/Sebastopol, Cotati, Rohnert Park"
2169,757074,8,Ac Santa Rosa Junior College,"20/Russian River Area, Forestville, Sebastopol, Santa Rosa, 20X/Russian River Area, Santa Rosa, 29A/Santa Rosa - Sonoma Coast, 30/Santa Rosa, Sonoma Valley, 30X/Santa Rosa, Sonoma Valley, 44/Petaluma, JC, SSU, Santa Rosa, 44X/Santa Rosa, Rohnert Park, Petaluma, 48/Santa Rosa, Rohnert Park, Cotati, Petaluma, 48X/Santa Rosa, Rohnert Park, Cotati, Petaluma, 54/South County Connector, 57/Kaiser, County Center, SRJC Shuttle, 60/Cloverdale, Healdsburg, Windsor, Santa Rosa, 60X/Cloverdale, Healdsburg, Windsor, Santa Rosa, 62/Santa Rosa, County Airport"
2169,757080,9,County Admin Center (Ventura Ave),"20/Russian River Area, Forestville, Sebastopol, Santa Rosa, 20X/Russian River Area, Santa Rosa, 30/Santa Rosa, Sonoma Valley, 30X/Santa Rosa, Sonoma Valley, 44/Petaluma, JC, SSU, Santa Rosa, 44X/Santa Rosa, Rohnert Park, Petaluma, 48/Santa Rosa, Rohnert Park, Cotati, Petaluma, 48X/Santa Rosa, Rohnert Park, Cotati, Petaluma, 54/South County Connector, 57/Kaiser, County Center, SRJC Shuttle, 60X/Cloverdale, Healdsburg, Windsor, Santa Rosa"
2169,757853,10,River Rd & Mirabel Rd,"20/Russian River Area, Forestville, Sebastopol, Santa Rosa, 20X/Russian River Area, Santa Rosa"
2169,757855,11,River Rd & Grays Ct (Ac Berry's Market),"20/Russian River Area, Forestville, Sebastopol, Santa Rosa, 20X/Russian River Area, Santa Rosa"
2169,757859,12,Rio Nido,"20/Russian River Area, Forestville, Sebastopol, Santa Rosa, 20X/Russian River Area, Santa Rosa"
2169,757865,13,Guerneville (Bank of America),"20/Russian River Area, Forestville, Sebastopol, Santa Rosa, 20X/Russian River Area, Santa Rosa, 28/Guerneville, Monte Rio, 29B/Guerneville - Sonoma Coast"
2169,757298,14,Monte Rio (Creekside Park),"20/Russian River Area, Forestville, Sebastopol, Santa Rosa, 20X/Russian River Area, Santa Rosa, 28/Guerneville, Monte Rio"
2176,757823,1,Laguna Park Way & Sebastopol Transit Hub,"20/Russian River Area, Forestville, Sebastopol, Santa Rosa, 22/Sebastopol, Santa Rosa, 24/Sebastopol Shuttle, 29A/Santa Rosa - Sonoma Coast"
2176,2454868,2,McKinley Street & Brown Street,24/Sebastopol Shuttle
2176,757349,3,Healdsburg Ave & N Main St (Safeway),"20/Russian River Area, Forestville, Sebastopol, Santa Rosa, 24/Sebastopol Shuttle, 26/Sebastopol, Cotati, Rohnert Park"
2176,757353,4,Senior Center,24/Sebastopol Shuttle
2176,2454897,5,Burbank Heights - Experimental Farm,24/Sebastopol Shuttle
2176,757359,6,Pleasant Hill Ave & Valentine Ave,24/Sebastopol Shuttle
2176,757361,7,Ragle Park - Ragle Rd & Covert Ln,24/Sebastopol Shuttle
2176,757362,8,Mill Station Rd & Hwy 116,24/Sebastopol Shuttle
2176,757363,9,Lucky's,24/Sebastopol Shuttle
2176,757349,10,Healdsburg Ave & N Main St (Safeway),"20/Russian River Area, Forestville, Sebastopol, Santa Rosa, 24/Sebastopol Shuttle, 26/Sebastopol, Cotati, Rohnert Park"
2176,757770,11,Sebastopol Post Office,"20/Russian River Area, Forestville, Sebastopol, Santa Rosa, 24/Sebastopol Shuttle, 26/Sebastopol, Cotati, Rohnert Park, 29A/Santa Rosa - Sonoma Coast, 52/West County Connector"
2176,2454869,12,Fairfield Inn - Main Entrance,24/Sebastopol Shuttle
2176,757821,13,Sonoma West Medical Ctr,"20/Russian River Area, Forestville, Sebastopol, Santa Rosa, 24/Sebastopol Shuttle, 26/Sebastopol, Cotati, Rohnert Park"
2176,757823,14,Laguna Park Way & Sebastopol Transit Hub,"20/Russian River Area, Forestville, Sebastopol, Santa Rosa, 22/Sebastopol, Santa Rosa, 24/Sebastopol Shuttle, 29A/Santa Rosa - Sonoma Coast"
2177,757823,1,Laguna Park Way & Sebastopol Transit Hub,"20/Russian River Area, Forestville, Sebastopol, Santa Rosa, 22/Sebastopol, Santa Rosa, 24/Sebastopol Shuttle, 29A/Santa Rosa - Sonoma Coast"
2177,2454868,2,McKinley Street & Brown Street,24/Sebastopol Shuttle
2177,757349,3,Healdsburg Ave & N Main St (Safeway),"20/Russian River Area, Forestville, Sebastopol, Santa Rosa, 24/Sebastopol Shuttle, 26/Sebastopol, Cotati, Rohnert Park"
2177,757353,4,Senior Center,24/Sebastopol Shuttle
2177,2454897,5,Burbank Heights - Experimental Farm,24/Sebastopol Shuttle
2177,757359,6,Pleasant Hill Ave & Valentine Ave,24/Sebastopol Shuttle
2177,757361,7,Ragle Park - Ragle Rd & Covert Ln,24/Sebastopol Shuttle
2177,757362,8,Mill Station Rd & Hwy 116,24/Sebastopol Shuttle
2177,757363,9,Lucky's,24/Sebastopol Shuttle
2177,757349,10,Healdsburg Ave & N Main St (Safeway),"20/Russian River Area, Forestville, Sebastopol, Santa Rosa, 24/Sebastopol Shuttle, 26/Sebastopol, Cotati, Rohnert Park"
2177,757770,11,Sebastopol Post Office,"20/Russian River Area, Forestville, Sebastopol, Santa Rosa, 24/Sebastopol Shuttle, 26/Sebastopol, Cotati, Rohnert Park, 29A/Santa Rosa - Sonoma Coast, 52/West County Connector"
2177,2454869,12,Fairfield Inn - Main Entrance,24/Sebastopol Shuttle
2177,757821,13,Sonoma West Medical Ctr,"20/Russian River Area, Forestville, Sebastopol, Santa Rosa, 24/Sebastopol Shuttle, 26/Sebastopol, Cotati, Rohnert Park"
2177,757823,14,Laguna Park Way & Sebastopol Transit Hub,"20/Russian River Area, Forestville, Sebastopol, Santa Rosa, 22/Sebastopol, Santa Rosa, 24/Sebastopol Shuttle, 29A/Santa Rosa - Sonoma Coast"
2183,757296,1,Occidental (Bohemian Hwy & Hill St),"20/Russian River Area, Forestville, Sebastopol, Santa Rosa, 28/Guerneville, Monte Rio"
2183,757297,2,Camp Meeker (Bohemian Hwy & Van Ness Ave),"28/Guerneville, Monte Rio"
2183,757298,3,Monte Rio (Creekside Park),"20/Russian River Area, Forestville, Sebastopol, Santa Rosa, 20X/Russian River Area, Santa Rosa, 28/Guerneville, Monte Rio"
2183,757300,4,Villa Grande,"28/Guerneville, Monte Rio, 29B/Guerneville - Sonoma Coast"
2183,2555755,5,Duncans Mills (Westbound),"28/Guerneville, Monte Rio"
2183,757302,6,Moscow Rd & Casini Ranch,"28/Guerneville, Monte Rio, 29B/Guerneville - Sonoma Coast"
2183,759362,7,Hwy 116 & Bohemian Hwy,"28/Guerneville, Monte Rio"
2183,757313,8,Guerneville Safeway,"20/Russian River Area, Forestville, Sebastopol, Santa Rosa, 20X/Russian River Area, Santa Rosa, 28/Guerneville, Monte Rio, 29B/Guerneville - Sonoma Coast"
2183,2517386,9,Guerneville Library,"28/Guerneville, Monte Rio"
2183,2517387,10,Russian River Senior Center,"28/Guerneville, Monte Rio"
2183,757316,11,Beach/ Orchard,"28/Guerneville, Monte Rio"
2183,757865,12,Guerneville (Bank of America),"20/Russian River Area, Forestville, Sebastopol, Santa Rosa, 20X/Russian River Area, Santa Rosa, 28/Guerneville, Monte Rio, 29B/Guerneville - Sonoma Coast"
2183,757870,13,Monte Rio & Hwy 116,"20/Russian River Area, Forestville, Sebastopol, Santa Rosa, 20X/Russian River Area, Santa Rosa, 28/Guerneville, Monte Rio, 29B/Guerneville - Sonoma Coast"
2183,2555755,14,Duncans Mills (Westbound),"28/Guerneville, Monte Rio"
2183,757302,15,Moscow Rd & Casini Ranch,"28/Guerneville, Monte Rio, 29B/Guerneville - Sonoma Coast"
2183,757300,16,Villa Grande,"28/Guerneville, Monte Rio, 29B/Guerneville - Sonoma Coast"
2183,757872,17,Main St & Starett Hill Rd,"20/Russian River Area, Forestville, Sebastopol, Santa Rosa, 20X/Russian River Area, Santa Rosa, 28/Guerneville, Monte Rio"
2183,757873,18,Camp Meeker (Bohemian Hwy & Market),"28/Guerneville, Monte Rio"
2183,757296,19,Occidental (Bohemian Hwy & Hill St),"20/Russian River Area, Forestville, Sebastopol, Santa Rosa, 28/Guerneville, Monte Rio"
2188,757277,1,Coddingtown,"20/Russian River Area, Forestville, Sebastopol, Santa Rosa, 29A/Santa Rosa - Sonoma Coast, 30/Santa Rosa, Sonoma Valley, 30X/Santa Rosa, Sonoma Valley, 44/Petaluma, JC, SSU, Santa Rosa, 44X/Santa Rosa, Rohnert Park, Petaluma, 48/Santa Rosa, Rohnert Park, Cotati, Petaluma, 54/South County Connector"
2188,757284,2,County Admin Center (Ventura Ave),"20/Russian River Area, Forestville, Sebastopol, Santa Rosa, 20X/Russian River Area, Santa Rosa, 30/Santa Rosa, Sonoma Valley, 30X/Santa Rosa, Sonoma Valley, 44/Petaluma, JC, SSU, Santa Rosa, 44X/Santa Rosa, Rohnert Park, Petaluma, 48/Santa Rosa, Rohnert Park, Cotati, Petaluma, 48X/Santa Rosa, Rohnert Park, Cotati, Petaluma, 54/South County Connector, 57/Kaiser, County Center, SRJC Shuttle, 60X/Cloverdale, Healdsburg, Windsor, Santa Rosa"
2188,757291,3,Santa Rosa Junior College,"20/Russian River Area, Forestville, Sebastopol, Santa Rosa, 20X/Russian River Area, Santa Rosa, 29A/Santa Rosa - Sonoma Coast, 30/Santa Rosa, Sonoma Valley, 30X/Santa Rosa, Sonoma Valley, 44/Petaluma, JC, SSU, Santa Rosa, 44X/Santa Rosa, Rohnert Park, Petaluma, 48/Santa Rosa, Rohnert Park, Cotati, Petaluma, 48X/Santa Rosa, Rohnert Park, Cotati, Petaluma, 54/South County Connector, 57/Kaiser, County Center, SRJC Shuttle, 60/Cloverdale, Healdsburg, Windsor, Santa Rosa, 60X/Cloverdale, Healdsburg, Windsor, Santa Rosa, 62/Santa Rosa, County Airport"
2188,757068,4,Santa Rosa Transit Mall,"20/Russian River Area, Forestville, Sebastopol, Santa Rosa, 20X/Russian River Area, Santa Rosa, 22/Sebastopol, Santa Rosa, 29A/Santa Rosa - Sonoma Coast, 29B/Guerneville - Sonoma Coast, 30/Santa Rosa, Sonoma Valley, 30X/Santa Rosa, Sonoma Valley, 34/Santa Rosa, Sonoma, 42/Santa Rosa, Industry West Business Park, 44/Petaluma, JC, SSU, Santa Rosa, 44X/Santa Rosa, Rohnert Park, Petaluma, 46/Santa Rosa, Sonoma State University, Cotati Depot, 48/Santa Rosa, Rohnert Park, Cotati, Petaluma, 48X/Santa Rosa, Rohnert Park, Cotati, Petaluma, 54/South County Connector, 60/Cloverdale, Healdsburg, Windsor, Santa Rosa, 60X/Cloverdale, Healdsburg, Windsor, Santa Rosa, 62/Santa Rosa, County Airport"
2188,757381,5,Memorial Hospital,"30/Santa Rosa, Sonoma Valley, 30X/Santa Rosa, Sonoma Valley, 34/Santa Rosa, Sonoma"
2188,757383,6,Montgomery Village,"30/Santa Rosa, Sonoma Valley, 30X/Santa Rosa, Sonoma Valley, 34/Santa Rosa, Sonoma"
2188,757392,7,St Francis Ctr (Hwy 12 & Calistoga Rd),"30/Santa Rosa, Sonoma Valley, 30X/Santa Rosa, Sonoma Valley, 34/Santa Rosa, Sonoma"
2188,757400,8,Oakmont Dr & White Oak,"30/Santa Rosa, Sonoma Valley"
2188,757404,9,Ac Oakmont Golf Course,"30/Santa Rosa, Sonoma Valley"
2188,757405,10,Valley Oaks & Pythian Rd,"30/Santa Rosa, Sonoma Valley"
2188,757409,11,Los Guilicos,"30/Santa Rosa, Sonoma Valley"
2188,757413,12,Kenwood (Hwy 12 & Greene St),"30/Santa Rosa, Sonoma Valley, 30X/Santa Rosa, Sonoma Valley, 34/Santa Rosa, Sonoma, 38/Sonoma Valley, San Rafael"
2188,757420,13,Glen Ellen (Arnold Dr & London Ranch Rd),"30/Santa Rosa, Sonoma Valley, 38/Sonoma Valley, San Rafael"
2188,757422,14,Sonoma Dev Center,"30/Santa Rosa, Sonoma Valley, 38/Sonoma Valley, San Rafael"
2188,757426,15,Hanna Boys Center,"30/Santa Rosa, Sonoma Valley, 38/Sonoma Valley, San Rafael"
2188,757432,16,Boyes Hot Springs,"30/Santa Rosa, Sonoma Valley, 30X/Santa Rosa, Sonoma Valley, 32/Sonoma Valley, 34/Santa Rosa, Sonoma, 38/Sonoma Valley, San Rafael"
2188,757442,17,El Verano (Verano Ave & Bay St),"30/Santa Rosa, Sonoma Valley, 30X/Santa Rosa, Sonoma Valley, 32/Sonoma Valley, 34/Santa Rosa, Sonoma, 38/Sonoma Valley, San Rafael"
2188,757448,18,5th St W & W Napa,"30/Santa Rosa, Sonoma Valley, 30X/Santa Rosa, Sonoma Valley, 34/Santa Rosa, Sonoma, 38/Sonoma Valley, San Rafael"
2188,757457,19,Sonoma Plaza,"30/Santa Rosa, Sonoma Valley, 30X/Santa Rosa, Sonoma Valley, 32/Sonoma Valley, 34/Santa Rosa, Sonoma, 38/Sonoma Valley, San Rafael, 40/Sonoma, Petaluma, 53/East County Connector"
2188,757728,20,Sonoma Mtn Pkwy (Petaluma SRJC),"30/Santa Rosa, Sonoma Valley, 44/Petaluma, JC, SSU, Santa Rosa"
2188,2329762,21,Camino Colegio & Manchester (Ac Credo HS),"26/Sebastopol, Cotati, Rohnert Park, 30/Santa Rosa, Sonoma Valley, 44/Petaluma, JC, SSU, Santa Rosa, 46/Santa Rosa, Sonoma State University, Cotati Depot"
2188,757751,22,Sonoma State University,"10/Cotati, Rohnert Park, Sonoma State University, 26/Sebastopol, Cotati, Rohnert Park, 30/Santa Rosa, Sonoma Valley, 44/Petaluma, JC, SSU, Santa Rosa, 46/Santa Rosa, Sonoma State University, Cotati Depot, 52/West County Connector"
2189,757751,1,Sonoma State University,"10/Cotati, Rohnert Park, Sonoma State University, 26/Sebastopol, Cotati, Rohnert Park, 30/Santa Rosa, Sonoma Valley, 44/Petaluma, JC, SSU, Santa Rosa, 46/Santa Rosa, Sonoma State University, Cotati Depot, 52/West County Connector"
2189,757799,2,Camino Colegio & Mitchell (Credo HS),"10/Cotati, Rohnert Park, Sonoma State University, 10T/Cotati, Rohnert Park Tripper, 26/Sebastopol, Cotati, Rohnert Park, 30/Santa Rosa, Sonoma Valley, 44/Petaluma, JC, SSU, Santa Rosa, 46/Santa Rosa, Sonoma State University, Cotati Depot, 52/West County Connector"
2189,757645,3,Sonoma Mtn Pkwy (Ac Petaluma SRJC),"30/Santa Rosa, Sonoma Valley, 44/Petaluma, JC, SSU, Santa Rosa"
2189,757457,4,Sonoma Plaza,"30/Santa Rosa, Sonoma Valley, 30X/Santa Rosa, Sonoma Valley, 32/Sonoma Valley, 34/Santa Rosa, Sonoma, 38/Sonoma Valley, San Rafael, 40/Sonoma, Petaluma, 53/East County Connector"
2189,757469,5,5th St W & W Napa,"30/Santa Rosa, Sonoma Valley, 30X/Santa Rosa, Sonoma Valley, 34/Santa Rosa, Sonoma, 38/Sonoma Valley, San Rafael"
2189,757476,6,Bay St/Verano Ave (ac El Verano PO),"30/Santa Rosa, Sonoma Valley, 34/Santa Rosa, Sonoma, 38/Sonoma Valley, San Rafael"
2189,757484,7,Hwy 12 & Verano Ave,"30/Santa Rosa, Sonoma Valley, 30X/Santa Rosa, Sonoma Valley, 32/Sonoma Valley, 34/Santa Rosa, Sonoma, 38/Sonoma Valley, San Rafael"
2189,757489,8,Boyes Hot Springs (Sonoma Mission Inn),"30/Santa Rosa, Sonoma Valley, 30X/Santa Rosa, Sonoma Valley, 32/Sonoma Valley, 34/Santa Rosa, Sonoma, 38/Sonoma Valley, San Rafael"
2189,757497,9,Hanna Boys Center,"30/Santa Rosa, Sonoma Valley, 38/Sonoma Valley, San Rafael"
2189,757501,10,Sonoma Dev Center,"30/Santa Rosa, Sonoma Valley, 38/Sonoma Valley, San Rafael"
2189,757503,11,Glen Ellen (Arnold Dr & London Ranch Rd),"30/Santa Rosa, Sonoma Valley, 38/Sonoma Valley, San Rafael"
2189,757509,12,Kenwood (Hwy 12 & Greene St),"30/Santa Rosa, Sonoma Valley, 30X/Santa Rosa, Sonoma Valley, 34/Santa Rosa, Sonoma, 38/Sonoma Valley, San Rafael"
2189,757409,13,Los Guilicos,"30/Santa Rosa, Sonoma Valley"
2189,757516,14,Pythian Rd & Valley Oaks,"30/Santa Rosa, Sonoma Valley"
2189,757517,15,Oakmont Golf Course,"30/Santa Rosa, Sonoma Valley"
2189,757520,16,Oakmont Dr & White Oak,"30/Santa Rosa, Sonoma Valley"
2189,757527,17,St Francis Ctr (Hwy 12 & Calistoga Rd),"30/Santa Rosa, Sonoma Valley, 30X/Santa Rosa, Sonoma Valley, 34/Santa Rosa, Sonoma"
2189,757536,18,Montgomery Village,"30/Santa Rosa, Sonoma Valley, 30X/Santa Rosa, Sonoma Valley, 34/Santa Rosa, Sonoma"
2189,757538,19,Memorial Hospital,"30/Santa Rosa, Sonoma Valley, 30X/Santa Rosa, Sonoma Valley, 34/Santa Rosa, Sonoma"
2189,757068,20,Santa Rosa Transit Mall,"20/Russian River Area, Forestville, Sebastopol, Santa Rosa, 20X/Russian River Area, Santa Rosa, 22/Sebastopol, Santa Rosa, 29A/Santa Rosa - Sonoma Coast, 29B/Guerneville - Sonoma Coast, 30/Santa Rosa, Sonoma Valley, 30X/Santa Rosa, Sonoma Valley, 34/Santa Rosa, Sonoma, 42/Santa Rosa, Industry West Business Park, 44/Petaluma, JC, SSU, Santa Rosa, 44X/Santa Rosa, Rohnert Park, Petaluma, 46/Santa Rosa, Sonoma State University, Cotati Depot, 48/Santa Rosa, Rohnert Park, Cotati, Petaluma, 48X/Santa Rosa, Rohnert Park, Cotati, Petaluma, 54/South County Connector, 60/Cloverdale, Healdsburg, Windsor, Santa Rosa, 60X/Cloverdale, Healdsburg, Windsor, Santa Rosa, 62/Santa Rosa, County Airport"
2189,757074,21,Ac Santa Rosa Junior College,"20/Russian River Area, Forestville, Sebastopol, Santa Rosa, 20X/Russian River Area, Santa Rosa, 29A/Santa Rosa - Sonoma Coast, 30/Santa Rosa, Sonoma Valley, 30X/Santa Rosa, Sonoma Valley, 44/Petaluma, JC, SSU, Santa Rosa, 44X/Santa Rosa, Rohnert Park, Petaluma, 48/Santa Rosa, Rohnert Park, Cotati, Petaluma, 48X/Santa Rosa, Rohnert Park, Cotati, Petaluma, 54/South County Connector, 57/Kaiser, County Center, SRJC Shuttle, 60/Cloverdale, Healdsburg, Windsor, Santa Rosa, 60X/Cloverdale, Healdsburg, Windsor, Santa Rosa, 62/Santa Rosa, County Airport"
2189,757080,22,County Admin Center (Ventura Ave),"20/Russian River Area, Forestville, Sebastopol, Santa Rosa, 20X/Russian River Area, Santa Rosa, 30/Santa Rosa, Sonoma Valley, 30X/Santa Rosa, Sonoma Valley, 44/Petaluma, JC, SSU, Santa Rosa, 44X/Santa Rosa, Rohnert Park, Petaluma, 48/Santa Rosa, Rohnert Park, Cotati, Petaluma, 48X/Santa Rosa, Rohnert Park, Cotati, Petaluma, 54/South County Connector, 57/Kaiser, County Center, SRJC Shuttle, 60X/Cloverdale, Healdsburg, Windsor, Santa Rosa"
2189,757277,23,Coddingtown,"20/Russian River Area, Forestville, Sebastopol, Santa Rosa, 29A/Santa Rosa - Sonoma Coast, 30/Santa Rosa, Sonoma Valley, 30X/Santa Rosa, Sonoma Valley, 44/Petaluma, JC, SSU, Santa Rosa, 44X/Santa Rosa, Rohnert Park, Petaluma, 48/Santa Rosa, Rohnert Park, Cotati, Petaluma, 54/South County Connector"
2190,757277,1,Coddingtown,"20/Russian River Area, Forestville, Sebastopol, Santa Rosa, 29A/Santa Rosa - Sonoma Coast, 30/Santa Rosa, Sonoma Valley, 30X/Santa Rosa, Sonoma Valley, 44/Petaluma, JC, SSU, Santa Rosa, 44X/Santa Rosa, Rohnert Park, Petaluma, 48/Santa Rosa, Rohnert Park, Cotati, Petaluma, 54/South County Connector"
2190,757291,2,Santa Rosa Junior College,"20/Russian River Area, Forestville, Sebastopol, Santa Rosa, 20X/Russian River Area, Santa Rosa, 29A/Santa Rosa - Sonoma Coast, 30/Santa Rosa, Sonoma Valley, 30X/Santa Rosa, Sonoma Valley, 44/Petaluma, JC, SSU, Santa Rosa, 44X/Santa Rosa, Rohnert Park, Petaluma, 48/Santa Rosa, Rohnert Park, Cotati, Petaluma, 48X/Santa Rosa, Rohnert Park, Cotati, Petaluma, 54/South County Connector, 57/Kaiser, County Center, SRJC Shuttle, 60/Cloverdale, Healdsburg, Windsor, Santa Rosa, 60X/Cloverdale, Healdsburg, Windsor, Santa Rosa, 62/Santa Rosa, County Airport"
2190,757068,3,Santa Rosa Transit Mall,"20/Russian River Area, Forestville, Sebastopol, Santa Rosa, 20X/Russian River Area, Santa Rosa, 22/Sebastopol, Santa Rosa, 29A/Santa Rosa - Sonoma Coast, 29B/Guerneville - Sonoma Coast, 30/Santa Rosa, Sonoma Valley, 30X/Santa Rosa, Sonoma Valley, 34/Santa Rosa, Sonoma, 42/Santa Rosa, Industry West Business Park, 44/Petaluma, JC, SSU, Santa Rosa, 44X/Santa Rosa, Rohnert Park, Petaluma, 46/Santa Rosa, Sonoma State University, Cotati Depot, 48/Santa Rosa, Rohnert Park, Cotati, Petaluma, 48X/Santa Rosa, Rohnert Park, Cotati, Petaluma, 54/South County Connector, 60/Cloverdale, Healdsburg, Windsor, Santa Rosa, 60X/Cloverdale, Healdsburg, Windsor, Santa Rosa, 62/Santa Rosa, County Airport"
2190,757381,4,Memorial Hospital,"30/Santa Rosa, Sonoma Valley, 30X/Santa Rosa, Sonoma Valley, 34/Santa Rosa, Sonoma"
2190,757383,5,Montgomery Village,"30/Santa Rosa, Sonoma Valley, 30X/Santa Rosa, Sonoma Valley, 34/Santa Rosa, Sonoma"
2190,757392,6,St Francis Ctr (Hwy 12 & Calistoga Rd),"30/Santa Rosa, Sonoma Valley, 30X/Santa Rosa, Sonoma Valley, 34/Santa Rosa, Sonoma"
2190,757400,7,Oakmont Dr & White Oak,"30/Santa Rosa, Sonoma Valley"
2190,757404,8,Ac Oakmont Golf Course,"30/Santa Rosa, Sonoma Valley"
2190,757405,9,Valley Oaks & Pythian Rd,"30/Santa Rosa, Sonoma Valley"
2190,757409,10,Los Guilicos,"30/Santa Rosa, Sonoma Valley"
2190,757413,11,Kenwood (Hwy 12 & Greene St),"30/Santa Rosa, Sonoma Valley, 30X/Santa Rosa, Sonoma Valley, 34/Santa Rosa, Sonoma, 38/Sonoma Valley, San Rafael"
2190,757420,12,Glen Ellen (Arnold Dr & London Ranch Rd),"30/Santa Rosa, Sonoma Valley, 38/Sonoma Valley, San Rafael"
2190,757422,13,Sonoma Dev Center,"30/Santa Rosa, Sonoma Valley, 38/Sonoma Valley, San Rafael"
2190,757426,14,Hanna Boys Center,"30/Santa Rosa, Sonoma Valley, 38/Sonoma Valley, San Rafael"
2190,757432,15,Boyes Hot Springs,"30/Santa Rosa, Sonoma Valley, 30X/Santa Rosa, Sonoma Valley, 32/Sonoma Valley, 34/Santa Rosa, Sonoma, 38/Sonoma Valley, San Rafael"
2190,757442,16,El Verano (Verano Ave & Bay St),"30/Santa Rosa, Sonoma Valley, 30X/Santa Rosa, Sonoma Valley, 32/Sonoma Valley, 34/Santa Rosa, Sonoma, 38/Sonoma Valley, San Rafael"
2190,757448,17,5th St W & W Napa,"30/Santa Rosa, Sonoma Valley, 30X/Santa Rosa, Sonoma Valley, 34/Santa Rosa, Sonoma, 38/Sonoma Valley, San Rafael"
2190,757457,18,Sonoma Plaza,"30/Santa Rosa, Sonoma Valley, 30X/Santa Rosa, Sonoma Valley, 32/Sonoma Valley, 34/Santa Rosa, Sonoma, 38/Sonoma Valley, San Rafael, 40/Sonoma, Petaluma, 53/East County Connector"
2191,757457,1,Sonoma Plaza,"30/Santa Rosa, Sonoma Valley, 30X/Santa Rosa, Sonoma Valley, 32/Sonoma Valley, 34/Santa Rosa, Sonoma, 38/Sonoma Valley, San Rafael, 40/Sonoma, Petaluma, 53/East County Connector"
2191,757469,2,5th St W & W Napa,"30/Santa Rosa, Sonoma Valley, 30X/Santa Rosa, Sonoma Valley, 34/Santa Rosa, Sonoma, 38/Sonoma Valley, San Rafael"
2191,757476,3,Bay St/Verano Ave (ac El Verano PO),"30/Santa Rosa, Sonoma Valley, 34/Santa Rosa, Sonoma, 38/Sonoma Valley, San Rafael"
2191,757489,4,Boyes Hot Springs (Sonoma Mission Inn),"30/Santa Rosa, Sonoma Valley, 30X/Santa Rosa, Sonoma Valley, 32/Sonoma Valley, 34/Santa Rosa, Sonoma, 38/Sonoma Valley, San Rafael"
2191,757497,5,Hanna Boys Center,"30/Santa Rosa, Sonoma Valley, 38/Sonoma Valley, San Rafael"
2191,757501,6,Sonoma Dev Center,"30/Santa Rosa, Sonoma Valley, 38/Sonoma Valley, San Rafael"
2191,757503,7,Glen Ellen (Arnold Dr & London Ranch Rd),"30/Santa Rosa, Sonoma Valley, 38/Sonoma Valley, San Rafael"
2191,757509,8,Kenwood (Hwy 12 & Greene St),"30/Santa Rosa, Sonoma Valley, 30X/Santa Rosa, Sonoma Valley, 34/Santa Rosa, Sonoma, 38/Sonoma Valley, San Rafael"
2191,757409,9,Los Guilicos,"30/Santa Rosa, Sonoma Valley"
2191,757516,10,Pythian Rd & Valley Oaks,"30/Santa Rosa, Sonoma Valley"
2191,757517,11,Oakmont Golf Course,"30/Santa Rosa, Sonoma Valley"
2191,757520,12,Oakmont Dr & White Oak,"30/Santa Rosa, Sonoma Valley"
2191,757527,13,St Francis Ctr (Hwy 12 & Calistoga Rd),"30/Santa Rosa, Sonoma Valley, 30X/Santa Rosa, Sonoma Valley, 34/Santa Rosa, Sonoma"
2191,757536,14,Montgomery Village,"30/Santa Rosa, Sonoma Valley, 30X/Santa Rosa, Sonoma Valley, 34/Santa Rosa, Sonoma"
2191,757538,15,Memorial Hospital,"30/Santa Rosa, Sonoma Valley, 30X/Santa Rosa, Sonoma Valley, 34/Santa Rosa, Sonoma"
2191,757068,16,Santa Rosa Transit Mall,"20/Russian River Area, Forestville, Sebastopol, Santa Rosa, 20X/Russian River Area, Santa Rosa, 22/Sebastopol, Santa Rosa, 29A/Santa Rosa - Sonoma Coast, 29B/Guerneville - Sonoma Coast, 30/Santa Rosa, Sonoma Valley, 30X/Santa Rosa, Sonoma Valley, 34/Santa Rosa, Sonoma, 42/Santa Rosa, Industry West Business Park, 44/Petaluma, JC, SSU, Santa Rosa, 44X/Santa Rosa, Rohnert Park, Petaluma, 46/Santa Rosa, Sonoma State University, Cotati Depot, 48/Santa Rosa, Rohnert Park, Cotati, Petaluma, 48X/Santa Rosa, Rohnert Park, Cotati, Petaluma, 54/South County Connector, 60/Cloverdale, Healdsburg, Windsor, Santa Rosa, 60X/Cloverdale, Healdsburg, Windsor, Santa Rosa, 62/Santa Rosa, County Airport"
2191,757074,17,Ac Santa Rosa Junior College,"20/Russian River Area, Forestville, Sebastopol, Santa Rosa, 20X/Russian River Area, Santa Rosa, 29A/Santa Rosa - Sonoma Coast, 30/Santa Rosa, Sonoma Valley, 30X/Santa Rosa, Sonoma Valley, 44/Petaluma, JC, SSU, Santa Rosa, 44X/Santa Rosa, Rohnert Park, Petaluma, 48/Santa Rosa, Rohnert Park, Cotati, Petaluma, 48X/Santa Rosa, Rohnert Park, Cotati, Petaluma, 54/South County Connector, 57/Kaiser, County Center, SRJC Shuttle, 60/Cloverdale, Healdsburg, Windsor, Santa Rosa, 60X/Cloverdale, Healdsburg, Windsor, Santa Rosa, 62/Santa Rosa, County Airport"
2191,757277,18,Coddingtown,"20/Russian River Area, Forestville, Sebastopol, Santa Rosa, 29A/Santa Rosa - Sonoma Coast, 30/Santa Rosa, Sonoma Valley, 30X/Santa Rosa, Sonoma Valley, 44/Petaluma, JC, SSU, Santa Rosa, 44X/Santa Rosa, Rohnert Park, Petaluma, 48/Santa Rosa, Rohnert Park, Cotati, Petaluma, 54/South County Connector"
2196,757457,1,Sonoma Plaza,"30/Santa Rosa, Sonoma Valley, 30X/Santa Rosa, Sonoma Valley, 32/Sonoma Valley, 34/Santa Rosa, Sonoma, 38/Sonoma Valley, San Rafael, 40/Sonoma, Petaluma, 53/East County Connector"
2196,757958,2,W Napa St & 5th St W (ac Safeway),32/Sonoma Valley
2196,757959,3,Maxwell Village Shopping Center (inside) ,"32/Sonoma Valley, 34/Santa Rosa, Sonoma"
2196,757487,4,Fiesta Plaza,"30/Santa Rosa, Sonoma Valley, 30X/Santa Rosa, Sonoma Valley, 32/Sonoma Valley, 34/Santa Rosa, Sonoma, 38/Sonoma Valley, San Rafael"
2196,757492,5,Hwy 12 & Marin Ave,"30/Santa Rosa, Sonoma Valley, 30X/Santa Rosa, Sonoma Valley, 32/Sonoma Valley, 38/Sonoma Valley, San Rafael"
2196,757429,6,Hwy 12 & Marin Ave,"30/Santa Rosa, Sonoma Valley, 30X/Santa Rosa, Sonoma Valley, 32/Sonoma Valley, 38/Sonoma Valley, San Rafael"
2196,757432,7,Boyes Hot Springs,"30/Santa Rosa, Sonoma Valley, 30X/Santa Rosa, Sonoma Valley, 32/Sonoma Valley, 34/Santa Rosa, Sonoma, 38/Sonoma Valley, San Rafael"
2196,757443,8,Grove St & Bay St,"30/Santa Rosa, Sonoma Valley, 30X/Santa Rosa, Sonoma Valley, 32/Sonoma Valley, 34/Santa Rosa, Sonoma, 38/Sonoma Valley, San Rafael"
2196,757437,9,Maxwell Village on Hwy 12,"32/Sonoma Valley, 34/Santa Rosa, Sonoma"
2196,757968,10,W Napa St & 5th St W (front of Safeway),32/Sonoma Valley
2196,757970,11,Sonoma Marketplace (on West Napa),32/Sonoma Valley
2196,757455,12,E Broadway & MacArthur (Ac Sonoma Vly HS),"30/Santa Rosa, Sonoma Valley, 30X/Santa Rosa, Sonoma Valley, 32/Sonoma Valley, 34/Santa Rosa, Sonoma, 38/Sonoma Valley, San Rafael, 40/Sonoma, Petaluma, 53/East County Connector"
2196,757457,13,Sonoma Plaza,"30/Santa Rosa, Sonoma Valley, 30X/Santa Rosa, Sonoma Valley, 32/Sonoma Valley, 34/Santa Rosa, Sonoma, 38/Sonoma Valley, San Rafael, 40/Sonoma, Petaluma, 53/East County Connector"
2197,757457,1,Sonoma Plaza,"30/Santa Rosa, Sonoma Valley, 30X/Santa Rosa, Sonoma Valley, 32/Sonoma Valley, 34/Santa Rosa, Sonoma, 38/Sonoma Valley, San Rafael, 40/Sonoma, Petaluma, 53/East County Connector"
2197,757465,2,W MacArthur & Broadway (Ac Sonoma Vly HS),"30/Santa Rosa, Sonoma Valley, 30X/Santa Rosa, Sonoma Valley, 32/Sonoma Valley"
2197,757453,3,2nd St W & Andrieux (Sonoma Medical Ctr),"32/Sonoma Valley, 38/Sonoma Valley, San Rafael"
2197,757454,4,2nd St W & Sonoma Marketplace,"32/Sonoma Valley, 38/Sonoma Valley, San Rafael"
2197,757975,5,Sonoma Valley Hospital,32/Sonoma Valley
2197,757450,6,Pueblo Serena MHP,"30/Santa Rosa, Sonoma Valley, 30X/Santa Rosa, Sonoma Valley, 32/Sonoma Valley, 34/Santa Rosa, Sonoma, 38/Sonoma Valley, San Rafael"
2197,758001,7,Temelec Circle & Mission Dr,"32/Sonoma Valley, 38/Sonoma Valley, San Rafael, 40/Sonoma, Petaluma, 53/East County Connector"
2197,758002,8,Via Colombard & Carnation,32/Sonoma Valley
2197,757982,9,Hermosa Pkwy & Watmaugh Rd,32/Sonoma Valley
2197,757467,10,Pueblo Serena MHP,"30/Santa Rosa, Sonoma Valley, 30X/Santa Rosa, Sonoma Valley, 32/Sonoma Valley, 34/Santa Rosa, Sonoma, 38/Sonoma Valley, San Rafael"
2197,758007,11,Sonoma Valley Hospital,32/Sonoma Valley
2197,757458,12,2nd St West & Sonoma Marketplace,"32/Sonoma Valley, 38/Sonoma Valley, San Rafael"
2197,757459,13,2nd St W & Andrieux (Ac Son Medical Ctr),"32/Sonoma Valley, 38/Sonoma Valley, San Rafael"
2197,757455,14,E Broadway & MacArthur (Ac Sonoma Vly HS),"30/Santa Rosa, Sonoma Valley, 30X/Santa Rosa, Sonoma Valley, 32/Sonoma Valley, 34/Santa Rosa, Sonoma, 38/Sonoma Valley, San Rafael, 40/Sonoma, Petaluma, 53/East County Connector"
2197,757457,15,Sonoma Plaza,"30/Santa Rosa, Sonoma Valley, 30X/Santa Rosa, Sonoma Valley, 32/Sonoma Valley, 34/Santa Rosa, Sonoma, 38/Sonoma Valley, San Rafael, 40/Sonoma, Petaluma, 53/East County Connector"
2198,757457,1,Sonoma Plaza,"30/Santa Rosa, Sonoma Valley, 30X/Santa Rosa, Sonoma Valley, 32/Sonoma Valley, 34/Santa Rosa, Sonoma, 38/Sonoma Valley, San Rafael, 40/Sonoma, Petaluma, 53/East County Connector"
2198,757958,2,W Napa St & 5th St W (ac Safeway),32/Sonoma Valley
2198,757959,3,Maxwell Village Shopping Center (inside) ,"32/Sonoma Valley, 34/Santa Rosa, Sonoma"
2198,757487,4,Fiesta Plaza,"30/Santa Rosa, Sonoma Valley, 30X/Santa Rosa, Sonoma Valley, 32/Sonoma Valley, 34/Santa Rosa, Sonoma, 38/Sonoma Valley, San Rafael"
2198,757492,5,Hwy 12 & Marin Ave,"30/Santa Rosa, Sonoma Valley, 30X/Santa Rosa, Sonoma Valley, 32/Sonoma Valley, 38/Sonoma Valley, San Rafael"
2198,757432,6,Boyes Hot Springs,"30/Santa Rosa, Sonoma Valley, 30X/Santa Rosa, Sonoma Valley, 32/Sonoma Valley, 34/Santa Rosa, Sonoma, 38/Sonoma Valley, San Rafael"
2198,757443,7,Grove St & Bay St,"30/Santa Rosa, Sonoma Valley, 30X/Santa Rosa, Sonoma Valley, 32/Sonoma Valley, 34/Santa Rosa, Sonoma, 38/Sonoma Valley, San Rafael"
2198,757437,8,Maxwell Village on Hwy 12,"32/Sonoma Valley, 34/Santa Rosa, Sonoma"
2198,757968,9,W Napa St & 5th St W (front of Safeway),32/Sonoma Valley
2198,757970,10,Sonoma Marketplace (on West Napa),32/Sonoma Valley
2198,757457,11,Sonoma Plaza,"30/Santa Rosa, Sonoma Valley, 30X/Santa Rosa, Sonoma Valley, 32/Sonoma Valley, 34/Santa Rosa, Sonoma, 38/Sonoma Valley, San Rafael, 40/Sonoma, Petaluma, 53/East County Connector"
2199,757457,1,Sonoma Plaza,"30/Santa Rosa, Sonoma Valley, 30X/Santa Rosa, Sonoma Valley, 32/Sonoma Valley, 34/Santa Rosa, Sonoma, 38/Sonoma Valley, San Rafael, 40/Sonoma, Petaluma, 53/East County Connector"
2199,757465,2,W MacArthur & Broadway (Ac Sonoma Vly HS),"30/Santa Rosa, Sonoma Valley, 30X/Santa Rosa, Sonoma Valley, 32/Sonoma Valley"
2199,757453,3,2nd St W & Andrieux (Sonoma Medical Ctr),"32/Sonoma Valley, 38/Sonoma Valley, San Rafael"
2199,757454,4,2nd St W & Sonoma Marketplace,"32/Sonoma Valley, 38/Sonoma Valley, San Rafael"
2199,757975,5,Sonoma Valley Hospital,32/Sonoma Valley
2199,757450,6,Pueblo Serena MHP,"30/Santa Rosa, Sonoma Valley, 30X/Santa Rosa, Sonoma Valley, 32/Sonoma Valley, 34/Santa Rosa, Sonoma, 38/Sonoma Valley, San Rafael"
2199,758001,7,Temelec Circle & Mission Dr,"32/Sonoma Valley, 38/Sonoma Valley, San Rafael, 40/Sonoma, Petaluma, 53/East County Connector"
2199,758002,8,Via Colombard & Carnation,32/Sonoma Valley
2199,757982,9,Hermosa Pkwy & Watmaugh Rd,32/Sonoma Valley
2199,757467,10,Pueblo Serena MHP,"30/Santa Rosa, Sonoma Valley, 30X/Santa Rosa, Sonoma Valley, 32/Sonoma Valley, 34/Santa Rosa, Sonoma, 38/Sonoma Valley, San Rafael"
2199,758007,11,Sonoma Valley Hospital,32/Sonoma Valley
2199,757458,12,2nd St West & Sonoma Marketplace,"32/Sonoma Valley, 38/Sonoma Valley, San Rafael"
2199,757459,13,2nd St W & Andrieux (Ac Son Medical Ctr),"32/Sonoma Valley, 38/Sonoma Valley, San Rafael"
2199,757455,14,E Broadway & MacArthur (Ac Sonoma Vly HS),"30/Santa Rosa, Sonoma Valley, 30X/Santa Rosa, Sonoma Valley, 32/Sonoma Valley, 34/Santa Rosa, Sonoma, 38/Sonoma Valley, San Rafael, 40/Sonoma, Petaluma, 53/East County Connector"
2199,757457,15,Sonoma Plaza,"30/Santa Rosa, Sonoma Valley, 30X/Santa Rosa, Sonoma Valley, 32/Sonoma Valley, 34/Santa Rosa, Sonoma, 38/Sonoma Valley, San Rafael, 40/Sonoma, Petaluma, 53/East County Connector"
2202,757068,1,Santa Rosa Transit Mall,"20/Russian River Area, Forestville, Sebastopol, Santa Rosa, 20X/Russian River Area, Santa Rosa, 22/Sebastopol, Santa Rosa, 29A/Santa Rosa - Sonoma Coast, 29B/Guerneville - Sonoma Coast, 30/Santa Rosa, Sonoma Valley, 30X/Santa Rosa, Sonoma Valley, 34/Santa Rosa, Sonoma, 42/Santa Rosa, Industry West Business Park, 44/Petaluma, JC, SSU, Santa Rosa, 44X/Santa Rosa, Rohnert Park, Petaluma, 46/Santa Rosa, Sonoma State University, Cotati Depot, 48/Santa Rosa, Rohnert Park, Cotati, Petaluma, 48X/Santa Rosa, Rohnert Park, Cotati, Petaluma, 54/South County Connector, 60/Cloverdale, Healdsburg, Windsor, Santa Rosa, 60X/Cloverdale, Healdsburg, Windsor, Santa Rosa, 62/Santa Rosa, County Airport"
2202,757383,2,Montgomery Village,"30/Santa Rosa, Sonoma Valley, 30X/Santa Rosa, Sonoma Valley, 34/Santa Rosa, Sonoma"
2202,757392,3,St Francis Ctr (Hwy 12 & Calistoga Rd),"30/Santa Rosa, Sonoma Valley, 30X/Santa Rosa, Sonoma Valley, 34/Santa Rosa, Sonoma"
2202,757413,4,Kenwood (Hwy 12 & Greene St),"30/Santa Rosa, Sonoma Valley, 30X/Santa Rosa, Sonoma Valley, 34/Santa Rosa, Sonoma, 38/Sonoma Valley, San Rafael"
2202,757418,5,Hwy 12 & Madrone Rd,"30X/Santa Rosa, Sonoma Valley, 34/Santa Rosa, Sonoma"
2202,757496,6,Agua Caliente Rd & Lake St,"30/Santa Rosa, Sonoma Valley, 32/Sonoma Valley, 34/Santa Rosa, Sonoma, 38/Sonoma Valley, San Rafael"
2202,757432,7,Boyes Hot Springs,"30/Santa Rosa, Sonoma Valley, 30X/Santa Rosa, Sonoma Valley, 32/Sonoma Valley, 34/Santa Rosa, Sonoma, 38/Sonoma Valley, San Rafael"
2202,757965,8,Railroad Ave & Toy Ln,"32/Sonoma Valley, 34/Santa Rosa, Sonoma"
2202,757443,9,Grove St & Bay St,"30/Santa Rosa, Sonoma Valley, 30X/Santa Rosa, Sonoma Valley, 32/Sonoma Valley, 34/Santa Rosa, Sonoma, 38/Sonoma Valley, San Rafael"
2202,757959,10,Maxwell Village Shopping Center (inside) ,"32/Sonoma Valley, 34/Santa Rosa, Sonoma"
2202,757448,11,5th St W & W Napa,"30/Santa Rosa, Sonoma Valley, 30X/Santa Rosa, Sonoma Valley, 34/Santa Rosa, Sonoma, 38/Sonoma Valley, San Rafael"
2202,758005,12,Broadway & Leveroni Rd,"30/Santa Rosa, Sonoma Valley, 34/Santa Rosa, Sonoma, 38/Sonoma Valley, San Rafael, 40/Sonoma, Petaluma, 53/East County Connector"
2202,757457,13,Sonoma Plaza,"30/Santa Rosa, Sonoma Valley, 30X/Santa Rosa, Sonoma Valley, 32/Sonoma Valley, 34/Santa Rosa, Sonoma, 38/Sonoma Valley, San Rafael, 40/Sonoma, Petaluma, 53/East County Connector"
2203,757457,1,Sonoma Plaza,"30/Santa Rosa, Sonoma Valley, 30X/Santa Rosa, Sonoma Valley, 32/Sonoma Valley, 34/Santa Rosa, Sonoma, 38/Sonoma Valley, San Rafael, 40/Sonoma, Petaluma, 53/East County Connector"
2203,757463,2,Broadway & Leveroni Rd,"30/Santa Rosa, Sonoma Valley, 34/Santa Rosa, Sonoma, 38/Sonoma Valley, San Rafael, 40/Sonoma, Petaluma, 53/East County Connector"
2203,757469,3,5th St W & W Napa,"30/Santa Rosa, Sonoma Valley, 30X/Santa Rosa, Sonoma Valley, 34/Santa Rosa, Sonoma, 38/Sonoma Valley, San Rafael"
2203,757959,4,Maxwell Village Shopping Center (inside) ,"32/Sonoma Valley, 34/Santa Rosa, Sonoma"
2203,757476,5,Bay St/Verano Ave (ac El Verano PO),"30/Santa Rosa, Sonoma Valley, 34/Santa Rosa, Sonoma, 38/Sonoma Valley, San Rafael"
2203,757489,6,Boyes Hot Springs (Sonoma Mission Inn),"30/Santa Rosa, Sonoma Valley, 30X/Santa Rosa, Sonoma Valley, 32/Sonoma Valley, 34/Santa Rosa, Sonoma, 38/Sonoma Valley, San Rafael"
2203,757427,7,Agua Caliente Rd & Lake St,"30/Santa Rosa, Sonoma Valley, 34/Santa Rosa, Sonoma, 38/Sonoma Valley, San Rafael"
2203,757493,8,Hwy 12 & Madrone Rd,"30X/Santa Rosa, Sonoma Valley, 34/Santa Rosa, Sonoma"
2203,757509,9,Kenwood (Hwy 12 & Greene St),"30/Santa Rosa, Sonoma Valley, 30X/Santa Rosa, Sonoma Valley, 34/Santa Rosa, Sonoma, 38/Sonoma Valley, San Rafael"
2203,757527,10,St Francis Ctr (Hwy 12 & Calistoga Rd),"30/Santa Rosa, Sonoma Valley, 30X/Santa Rosa, Sonoma Valley, 34/Santa Rosa, Sonoma"
2203,757536,11,Montgomery Village,"30/Santa Rosa, Sonoma Valley, 30X/Santa Rosa, Sonoma Valley, 34/Santa Rosa, Sonoma"
2203,757068,12,Santa Rosa Transit Mall,"20/Russian River Area, Forestville, Sebastopol, Santa Rosa, 20X/Russian River Area, Santa Rosa, 22/Sebastopol, Santa Rosa, 29A/Santa Rosa - Sonoma Coast, 29B/Guerneville - Sonoma Coast, 30/Santa Rosa, Sonoma Valley, 30X/Santa Rosa, Sonoma Valley, 34/Santa Rosa, Sonoma, 42/Santa Rosa, Industry West Business Park, 44/Petaluma, JC, SSU, Santa Rosa, 44X/Santa Rosa, Rohnert Park, Petaluma, 46/Santa Rosa, Sonoma State University, Cotati Depot, 48/Santa Rosa, Rohnert Park, Cotati, Petaluma, 48X/Santa Rosa, Rohnert Park, Cotati, Petaluma, 54/South County Connector, 60/Cloverdale, Healdsburg, Windsor, Santa Rosa, 60X/Cloverdale, Healdsburg, Windsor, Santa Rosa, 62/Santa Rosa, County Airport"
2210,757717,1,Petaluma Transit Mall,"40/Sonoma, Petaluma, 44/Petaluma, JC, SSU, Santa Rosa, 44X/Santa Rosa, Rohnert Park, Petaluma, 48/Santa Rosa, Rohnert Park, Cotati, Petaluma, 48X/Santa Rosa, Rohnert Park, Cotati, Petaluma, 53/East County Connector, 54/South County Connector"
2210,758001,2,Temelec Circle & Mission Dr,"32/Sonoma Valley, 38/Sonoma Valley, San Rafael, 40/Sonoma, Petaluma, 53/East County Connector"
2210,758005,3,Broadway & Leveroni Rd,"30/Santa Rosa, Sonoma Valley, 34/Santa Rosa, Sonoma, 38/Sonoma Valley, San Rafael, 40/Sonoma, Petaluma, 53/East County Connector"
2210,757457,4,Sonoma Plaza,"30/Santa Rosa, Sonoma Valley, 30X/Santa Rosa, Sonoma Valley, 32/Sonoma Valley, 34/Santa Rosa, Sonoma, 38/Sonoma Valley, San Rafael, 40/Sonoma, Petaluma, 53/East County Connector"
2211,757457,1,Sonoma Plaza,"30/Santa Rosa, Sonoma Valley, 30X/Santa Rosa, Sonoma Valley, 32/Sonoma Valley, 34/Santa Rosa, Sonoma, 38/Sonoma Valley, San Rafael, 40/Sonoma, Petaluma, 53/East County Connector"
2211,757463,2,Broadway & Leveroni Rd,"30/Santa Rosa, Sonoma Valley, 34/Santa Rosa, Sonoma, 38/Sonoma Valley, San Rafael, 40/Sonoma, Petaluma, 53/East County Connector"
2211,757978,3,Temelec Circle & Mission Dr,"38/Sonoma Valley, San Rafael, 40/Sonoma, Petaluma, 53/East County Connector"
2211,757717,4,Petaluma Transit Mall,"40/Sonoma, Petaluma, 44/Petaluma, JC, SSU, Santa Rosa, 44X/Santa Rosa, Rohnert Park, Petaluma, 48/Santa Rosa, Rohnert Park, Cotati, Petaluma, 48X/Santa Rosa, Rohnert Park, Cotati, Petaluma, 53/East County Connector, 54/South County Connector"
2214,757826,1,Amarosa Academy,"42/Santa Rosa, Industry West Business Park"
2214,757825,2,W Robles Ave & Standish Ave,"42/Santa Rosa, Industry West Business Park"
2214,757829,3,Moorland Ave & Todd Rd,"42/Santa Rosa, Industry West Business Park"
2214,757833,4,Moorland Ave & Bellevue Ave,"42/Santa Rosa, Industry West Business Park"
2214,757836,5,Corby Extension,"42/Santa Rosa, Industry West Business Park"
2214,757712,6,Santa Rosa Ave & Colgan Ave (Market Place),"42/Santa Rosa, Industry West Business Park, 44/Petaluma, JC, SSU, Santa Rosa, 44X/Santa Rosa, Rohnert Park, Petaluma, 48/Santa Rosa, Rohnert Park, Cotati, Petaluma, 54/South County Connector"
2214,757068,7,Santa Rosa Transit Mall,"20/Russian River Area, Forestville, Sebastopol, Santa Rosa, 20X/Russian River Area, Santa Rosa, 22/Sebastopol, Santa Rosa, 29A/Santa Rosa - Sonoma Coast, 29B/Guerneville - Sonoma Coast, 30/Santa Rosa, Sonoma Valley, 30X/Santa Rosa, Sonoma Valley, 34/Santa Rosa, Sonoma, 42/Santa Rosa, Industry West Business Park, 44/Petaluma, JC, SSU, Santa Rosa, 44X/Santa Rosa, Rohnert Park, Petaluma, 46/Santa Rosa, Sonoma State University, Cotati Depot, 48/Santa Rosa, Rohnert Park, Cotati, Petaluma, 48X/Santa Rosa, Rohnert Park, Cotati, Petaluma, 54/South County Connector, 60/Cloverdale, Healdsburg, Windsor, Santa Rosa, 60X/Cloverdale, Healdsburg, Windsor, Santa Rosa, 62/Santa Rosa, County Airport"
2215,757068,1,Santa Rosa Transit Mall,"20/Russian River Area, Forestville, Sebastopol, Santa Rosa, 20X/Russian River Area, Santa Rosa, 22/Sebastopol, Santa Rosa, 29A/Santa Rosa - Sonoma Coast, 29B/Guerneville - Sonoma Coast, 30/Santa Rosa, Sonoma Valley, 30X/Santa Rosa, Sonoma Valley, 34/Santa Rosa, Sonoma, 42/Santa Rosa, Industry West Business Park, 44/Petaluma, JC, SSU, Santa Rosa, 44X/Santa Rosa, Rohnert Park, Petaluma, 46/Santa Rosa, Sonoma State University, Cotati Depot, 48/Santa Rosa, Rohnert Park, Cotati, Petaluma, 48X/Santa Rosa, Rohnert Park, Cotati, Petaluma, 54/South County Connector, 60/Cloverdale, Healdsburg, Windsor, Santa Rosa, 60X/Cloverdale, Healdsburg, Windsor, Santa Rosa, 62/Santa Rosa, County Airport"
2215,757568,2,Santa Rosa Ave & Commercial Ct (Market Place),"42/Santa Rosa, Industry West Business Park, 44/Petaluma, JC, SSU, Santa Rosa, 44X/Santa Rosa, Rohnert Park, Petaluma, 48/Santa Rosa, Rohnert Park, Cotati, Petaluma, 54/South County Connector"
2215,757837,3,Corby Extension,"42/Santa Rosa, Industry West Business Park"
2215,758745,4,Bellevue Ave & Moorland Ave,"42/Santa Rosa, Industry West Business Park"
2215,757844,5,Moorland Ave & Todd Rd,"42/Santa Rosa, Industry West Business Park"
2215,757826,6,Amarosa Academy,"42/Santa Rosa, Industry West Business Park"
2215,757848,7,W Robles Ave & Standish Ave,"42/Santa Rosa, Industry West Business Park"
2228,757717,1,Petaluma Transit Mall,"40/Sonoma, Petaluma, 44/Petaluma, JC, SSU, Santa Rosa, 44X/Santa Rosa, Rohnert Park, Petaluma, 48/Santa Rosa, Rohnert Park, Cotati, Petaluma, 48X/Santa Rosa, Rohnert Park, Cotati, Petaluma, 53/East County Connector, 54/South County Connector"
2228,757722,2,N McDowell Blvd (Lucchesi Park),"44/Petaluma, JC, SSU, Santa Rosa"
2228,757728,3,Sonoma Mtn Pkwy (Petaluma SRJC),"30/Santa Rosa, Sonoma Valley, 44/Petaluma, JC, SSU, Santa Rosa"
2228,757658,4,Petaluma Blvd & Mary (Downtown Petaluma),"48/Santa Rosa, Rohnert Park, Cotati, Petaluma, 48X/Santa Rosa, Rohnert Park, Cotati, Petaluma, 54/South County Connector"
2228,757664,5,Petaluma Blvd N & Stony Pt Rd,"48/Santa Rosa, Rohnert Park, Cotati, Petaluma, 48X/Santa Rosa, Rohnert Park, Cotati, Petaluma, 54/South County Connector"
2228,757668,6,Old Redwood Hwy & Petaluma Hill Rd,"30/Santa Rosa, Sonoma Valley, 44/Petaluma, JC, SSU, Santa Rosa, 48/Santa Rosa, Rohnert Park, Cotati, Petaluma, 48X/Santa Rosa, Rohnert Park, Cotati, Petaluma, 54/South County Connector"
2228,757676,7,Cotati Hub,"26/Sebastopol, Cotati, Rohnert Park, 48/Santa Rosa, Rohnert Park, Cotati, Petaluma, 48X/Santa Rosa, Rohnert Park, Cotati, Petaluma, 52/West County Connector, 54/South County Connector"
2228,757751,8,Sonoma State University,"10/Cotati, Rohnert Park, Sonoma State University, 26/Sebastopol, Cotati, Rohnert Park, 30/Santa Rosa, Sonoma Valley, 44/Petaluma, JC, SSU, Santa Rosa, 46/Santa Rosa, Sonoma State University, Cotati Depot, 52/West County Connector"
2228,757768,9,East Cotati Ave & Ryan Lane,"10T/Cotati, Rohnert Park Tripper, 26/Sebastopol, Cotati, Rohnert Park, 44/Petaluma, JC, SSU, Santa Rosa"
2228,757683,10,Adrian & Southwest,"10T/Cotati, Rohnert Park Tripper, 44/Petaluma, JC, SSU, Santa Rosa, 48/Santa Rosa, Rohnert Park, Cotati, Petaluma"
2228,757689,11,Commerce Blvd & RP Expressway,"10/Cotati, Rohnert Park, Sonoma State University, 10T/Cotati, Rohnert Park Tripper, 12/Northern Rohnert Park, 12T/Northern Rohnert Park Tripper, 14/Northern Rohnert Park, 14T/Northern Rohnert Park Tripper, 44/Petaluma, JC, SSU, Santa Rosa, 44X/Santa Rosa, Rohnert Park, Petaluma, 48/Santa Rosa, Rohnert Park, Cotati, Petaluma, 48X/Santa Rosa, Rohnert Park, Cotati, Petaluma, 54/South County Connector"
2228,757691,12,Redwood Dr & RP Expressway (Budget Inn),"44/Petaluma, JC, SSU, Santa Rosa, 44X/Santa Rosa, Rohnert Park, Petaluma, 48/Santa Rosa, Rohnert Park, Cotati, Petaluma"
2228,757899,13,Labath & Martin,"44/Petaluma, JC, SSU, Santa Rosa, 48/Santa Rosa, Rohnert Park, Cotati, Petaluma"
2228,761115,14,Graton Resort (North Entrance),"12/Northern Rohnert Park, 44/Petaluma, JC, SSU, Santa Rosa, 48/Santa Rosa, Rohnert Park, Cotati, Petaluma"
2228,809086,15,Redwood Dr / Commerce Blvd (Taco Bell across from Chili's),"12/Northern Rohnert Park, 14/Northern Rohnert Park, 44/Petaluma, JC, SSU, Santa Rosa, 44X/Santa Rosa, Rohnert Park, Petaluma, 48/Santa Rosa, Rohnert Park, Cotati, Petaluma"
2228,757703,16,Santa Rosa Ave/ Todd Rd,"44/Petaluma, JC, SSU, Santa Rosa, 44X/Santa Rosa, Rohnert Park, Petaluma, 48/Santa Rosa, Rohnert Park, Cotati, Petaluma, 54/South County Connector"
2228,757068,17,Santa Rosa Transit Mall,"20/Russian River Area, Forestville, Sebastopol, Santa Rosa, 20X/Russian River Area, Santa Rosa, 22/Sebastopol, Santa Rosa, 29A/Santa Rosa - Sonoma Coast, 29B/Guerneville - Sonoma Coast, 30/Santa Rosa, Sonoma Valley, 30X/Santa Rosa, Sonoma Valley, 34/Santa Rosa, Sonoma, 42/Santa Rosa, Industry West Business Park, 44/Petaluma, JC, SSU, Santa Rosa, 44X/Santa Rosa, Rohnert Park, Petaluma, 46/Santa Rosa, Sonoma State University, Cotati Depot, 48/Santa Rosa, Rohnert Park, Cotati, Petaluma, 48X/Santa Rosa, Rohnert Park, Cotati, Petaluma, 54/South County Connector, 60/Cloverdale, Healdsburg, Windsor, Santa Rosa, 60X/Cloverdale, Healdsburg, Windsor, Santa Rosa, 62/Santa Rosa, County Airport"
2228,757074,18,Ac Santa Rosa Junior College,"20/Russian River Area, Forestville, Sebastopol, Santa Rosa, 20X/Russian River Area, Santa Rosa, 29A/Santa Rosa - Sonoma Coast, 30/Santa Rosa, Sonoma Valley, 30X/Santa Rosa, Sonoma Valley, 44/Petaluma, JC, SSU, Santa Rosa, 44X/Santa Rosa, Rohnert Park, Petaluma, 48/Santa Rosa, Rohnert Park, Cotati, Petaluma, 48X/Santa Rosa, Rohnert Park, Cotati, Petaluma, 54/South County Connector, 57/Kaiser, County Center, SRJC Shuttle, 60/Cloverdale, Healdsburg, Windsor, Santa Rosa, 60X/Cloverdale, Healdsburg, Windsor, Santa Rosa, 62/Santa Rosa, County Airport"
2228,757080,19,County Admin Center (Ventura Ave),"20/Russian River Area, Forestville, Sebastopol, Santa Rosa, 20X/Russian River Area, Santa Rosa, 30/Santa Rosa, Sonoma Valley, 30X/Santa Rosa, Sonoma Valley, 44/Petaluma, JC, SSU, Santa Rosa, 44X/Santa Rosa, Rohnert Park, Petaluma, 48/Santa Rosa, Rohnert Park, Cotati, Petaluma, 48X/Santa Rosa, Rohnert Park, Cotati, Petaluma, 54/South County Connector, 57/Kaiser, County Center, SRJC Shuttle, 60X/Cloverdale, Healdsburg, Windsor, Santa Rosa"
2228,757277,20,Coddingtown,"20/Russian River Area, Forestville, Sebastopol, Santa Rosa, 29A/Santa Rosa - Sonoma Coast, 30/Santa Rosa, Sonoma Valley, 30X/Santa Rosa, Sonoma Valley, 44/Petaluma, JC, SSU, Santa Rosa, 44X/Santa Rosa, Rohnert Park, Petaluma, 48/Santa Rosa, Rohnert Park, Cotati, Petaluma, 54/South County Connector"
2229,757277,1,Coddingtown,"20/Russian River Area, Forestville, Sebastopol, Santa Rosa, 29A/Santa Rosa - Sonoma Coast, 30/Santa Rosa, Sonoma Valley, 30X/Santa Rosa, Sonoma Valley, 44/Petaluma, JC, SSU, Santa Rosa, 44X/Santa Rosa, Rohnert Park, Petaluma, 48/Santa Rosa, Rohnert Park, Cotati, Petaluma, 54/South County Connector"
2229,757284,2,County Admin Center (Ventura Ave),"20/Russian River Area, Forestville, Sebastopol, Santa Rosa, 20X/Russian River Area, Santa Rosa, 30/Santa Rosa, Sonoma Valley, 30X/Santa Rosa, Sonoma Valley, 44/Petaluma, JC, SSU, Santa Rosa, 44X/Santa Rosa, Rohnert Park, Petaluma, 48/Santa Rosa, Rohnert Park, Cotati, Petaluma, 48X/Santa Rosa, Rohnert Park, Cotati, Petaluma, 54/South County Connector, 57/Kaiser, County Center, SRJC Shuttle, 60X/Cloverdale, Healdsburg, Windsor, Santa Rosa"
2229,757291,3,Santa Rosa Junior College,"20/Russian River Area, Forestville, Sebastopol, Santa Rosa, 20X/Russian River Area, Santa Rosa, 29A/Santa Rosa - Sonoma Coast, 30/Santa Rosa, Sonoma Valley, 30X/Santa Rosa, Sonoma Valley, 44/Petaluma, JC, SSU, Santa Rosa, 44X/Santa Rosa, Rohnert Park, Petaluma, 48/Santa Rosa, Rohnert Park, Cotati, Petaluma, 48X/Santa Rosa, Rohnert Park, Cotati, Petaluma, 54/South County Connector, 57/Kaiser, County Center, SRJC Shuttle, 60/Cloverdale, Healdsburg, Windsor, Santa Rosa, 60X/Cloverdale, Healdsburg, Windsor, Santa Rosa, 62/Santa Rosa, County Airport"
2229,757068,4,Santa Rosa Transit Mall,"20/Russian River Area, Forestville, Sebastopol, Santa Rosa, 20X/Russian River Area, Santa Rosa, 22/Sebastopol, Santa Rosa, 29A/Santa Rosa - Sonoma Coast, 29B/Guerneville - Sonoma Coast, 30/Santa Rosa, Sonoma Valley, 30X/Santa Rosa, Sonoma Valley, 34/Santa Rosa, Sonoma, 42/Santa Rosa, Industry West Business Park, 44/Petaluma, JC, SSU, Santa Rosa, 44X/Santa Rosa, Rohnert Park, Petaluma, 46/Santa Rosa, Sonoma State University, Cotati Depot, 48/Santa Rosa, Rohnert Park, Cotati, Petaluma, 48X/Santa Rosa, Rohnert Park, Cotati, Petaluma, 54/South County Connector, 60/Cloverdale, Healdsburg, Windsor, Santa Rosa, 60X/Cloverdale, Healdsburg, Windsor, Santa Rosa, 62/Santa Rosa, County Airport"
2229,757577,5,Santa Rosa Ave & Todd Rd,"44/Petaluma, JC, SSU, Santa Rosa, 44X/Santa Rosa, Rohnert Park, Petaluma, 48/Santa Rosa, Rohnert Park, Cotati, Petaluma, 54/South County Connector"
2229,757581,6,Robert's Lake Rd / Golf Course Dr,"44/Petaluma, JC, SSU, Santa Rosa, 44X/Santa Rosa, Rohnert Park, Petaluma, 48/Santa Rosa, Rohnert Park, Cotati, Petaluma, 54/South County Connector"
2229,757583,7,Redwood Dr & Commerce Blvd,"12/Northern Rohnert Park, 14/Northern Rohnert Park, 44/Petaluma, JC, SSU, Santa Rosa, 44X/Santa Rosa, Rohnert Park, Petaluma, 48/Santa Rosa, Rohnert Park, Cotati, Petaluma"
2229,761115,8,Graton Resort (North Entrance),"12/Northern Rohnert Park, 44/Petaluma, JC, SSU, Santa Rosa, 48/Santa Rosa, Rohnert Park, Cotati, Petaluma"
2229,757587,9,Labath & Martin,"12/Northern Rohnert Park, 14/Northern Rohnert Park, 44/Petaluma, JC, SSU, Santa Rosa, 44X/Santa Rosa, Rohnert Park, Petaluma"
2229,757591,10,Redwood Dr & RP Expressway (Mattress Firm),"12/Northern Rohnert Park, 14/Northern Rohnert Park, 44/Petaluma, JC, SSU, Santa Rosa, 44X/Santa Rosa, Rohnert Park, Petaluma, 48/Santa Rosa, Rohnert Park, Cotati, Petaluma"
2229,757596,11,Commerce Blvd & RP Expressway,"44/Petaluma, JC, SSU, Santa Rosa, 44X/Santa Rosa, Rohnert Park, Petaluma, 48/Santa Rosa, Rohnert Park, Cotati, Petaluma, 48X/Santa Rosa, Rohnert Park, Cotati, Petaluma, 54/South County Connector"
2229,757600,12,Adrian Dr & Southwest Blvd,"10T/Cotati, Rohnert Park Tripper, 44/Petaluma, JC, SSU, Santa Rosa, 48/Santa Rosa, Rohnert Park, Cotati, Petaluma"
2229,785279,13,East Cotati Ave & Santero Way,"10/Cotati, Rohnert Park, Sonoma State University, 10T/Cotati, Rohnert Park Tripper, 26/Sebastopol, Cotati, Rohnert Park, 44/Petaluma, JC, SSU, Santa Rosa, 46/Santa Rosa, Sonoma State University, Cotati Depot, 52/West County Connector"
2229,848650,14,Sonoma State University - NB,"44/Petaluma, JC, SSU, Santa Rosa, 46/Santa Rosa, Sonoma State University, Cotati Depot"
2229,757607,15,Cotati Hub,"10/Cotati, Rohnert Park, Sonoma State University, 10T/Cotati, Rohnert Park Tripper, 26/Sebastopol, Cotati, Rohnert Park, 48/Santa Rosa, Rohnert Park, Cotati, Petaluma, 48X/Santa Rosa, Rohnert Park, Cotati, Petaluma, 52/West County Connector, 54/South County Connector"
2229,757615,16,Old Redwood Hwy & Petaluma Hill Rd,"30/Santa Rosa, Sonoma Valley, 44/Petaluma, JC, SSU, Santa Rosa, 48/Santa Rosa, Rohnert Park, Cotati, Petaluma, 48X/Santa Rosa, Rohnert Park, Cotati, Petaluma, 54/South County Connector"
2229,757645,17,Sonoma Mtn Pkwy (Ac Petaluma SRJC),"30/Santa Rosa, Sonoma Valley, 44/Petaluma, JC, SSU, Santa Rosa"
2229,757653,18,N McDowell Blvd (Petaluma Plaza),"44/Petaluma, JC, SSU, Santa Rosa"
2229,757619,19,Petaluma Blvd N & Stony Pt Rd,"48/Santa Rosa, Rohnert Park, Cotati, Petaluma, 48X/Santa Rosa, Rohnert Park, Cotati, Petaluma, 54/South County Connector"
2229,757627,20,Washington & Petaluma Blvd (Downtown Petaluma),"48/Santa Rosa, Rohnert Park, Cotati, Petaluma, 48X/Santa Rosa, Rohnert Park, Cotati, Petaluma, 54/South County Connector"
2229,757717,21,Petaluma Transit Mall,"40/Sonoma, Petaluma, 44/Petaluma, JC, SSU, Santa Rosa, 44X/Santa Rosa, Rohnert Park, Petaluma, 48/Santa Rosa, Rohnert Park, Cotati, Petaluma, 48X/Santa Rosa, Rohnert Park, Cotati, Petaluma, 53/East County Connector, 54/South County Connector"
2230,757717,1,Petaluma Transit Mall,"40/Sonoma, Petaluma, 44/Petaluma, JC, SSU, Santa Rosa, 44X/Santa Rosa, Rohnert Park, Petaluma, 48/Santa Rosa, Rohnert Park, Cotati, Petaluma, 48X/Santa Rosa, Rohnert Park, Cotati, Petaluma, 53/East County Connector, 54/South County Connector"
2230,757658,2,Petaluma Blvd & Mary (Downtown Petaluma),"48/Santa Rosa, Rohnert Park, Cotati, Petaluma, 48X/Santa Rosa, Rohnert Park, Cotati, Petaluma, 54/South County Connector"
2230,757664,3,Petaluma Blvd N & Stony Pt Rd,"48/Santa Rosa, Rohnert Park, Cotati, Petaluma, 48X/Santa Rosa, Rohnert Park, Cotati, Petaluma, 54/South County Connector"
2230,757722,4,N McDowell Blvd (Lucchesi Park),"44/Petaluma, JC, SSU, Santa Rosa"
2230,2329760,5,N McDowell Blvd & Southpoint,"44/Petaluma, JC, SSU, Santa Rosa"
2230,757668,6,Old Redwood Hwy & Petaluma Hill Rd,"30/Santa Rosa, Sonoma Valley, 44/Petaluma, JC, SSU, Santa Rosa, 48/Santa Rosa, Rohnert Park, Cotati, Petaluma, 48X/Santa Rosa, Rohnert Park, Cotati, Petaluma, 54/South County Connector"
2230,757676,7,Cotati Hub,"26/Sebastopol, Cotati, Rohnert Park, 48/Santa Rosa, Rohnert Park, Cotati, Petaluma, 48X/Santa Rosa, Rohnert Park, Cotati, Petaluma, 52/West County Connector, 54/South County Connector"
2230,757751,8,Sonoma State University,"10/Cotati, Rohnert Park, Sonoma State University, 26/Sebastopol, Cotati, Rohnert Park, 30/Santa Rosa, Sonoma Valley, 44/Petaluma, JC, SSU, Santa Rosa, 46/Santa Rosa, Sonoma State University, Cotati Depot, 52/West County Connector"
2230,757768,9,East Cotati Ave & Ryan Lane,"10T/Cotati, Rohnert Park Tripper, 26/Sebastopol, Cotati, Rohnert Park, 44/Petaluma, JC, SSU, Santa Rosa"
2230,757683,10,Adrian & Southwest,"10T/Cotati, Rohnert Park Tripper, 44/Petaluma, JC, SSU, Santa Rosa, 48/Santa Rosa, Rohnert Park, Cotati, Petaluma"
2230,757689,11,Commerce Blvd & RP Expressway,"10/Cotati, Rohnert Park, Sonoma State University, 10T/Cotati, Rohnert Park Tripper, 12/Northern Rohnert Park, 12T/Northern Rohnert Park Tripper, 14/Northern Rohnert Park, 14T/Northern Rohnert Park Tripper, 44/Petaluma, JC, SSU, Santa Rosa, 44X/Santa Rosa, Rohnert Park, Petaluma, 48/Santa Rosa, Rohnert Park, Cotati, Petaluma, 48X/Santa Rosa, Rohnert Park, Cotati, Petaluma, 54/South County Connector"
2230,757691,12,Redwood Dr & RP Expressway (Budget Inn),"44/Petaluma, JC, SSU, Santa Rosa, 44X/Santa Rosa, Rohnert Park, Petaluma, 48/Santa Rosa, Rohnert Park, Cotati, Petaluma"
2230,761115,13,Graton Resort (North Entrance),"12/Northern Rohnert Park, 44/Petaluma, JC, SSU, Santa Rosa, 48/Santa Rosa, Rohnert Park, Cotati, Petaluma"
2230,809086,14,Redwood Dr / Commerce Blvd (Taco Bell across from Chili's),"12/Northern Rohnert Park, 14/Northern Rohnert Park, 44/Petaluma, JC, SSU, Santa Rosa, 44X/Santa Rosa, Rohnert Park, Petaluma, 48/Santa Rosa, Rohnert Park, Cotati, Petaluma"
2230,757703,15,Santa Rosa Ave/ Todd Rd,"44/Petaluma, JC, SSU, Santa Rosa, 44X/Santa Rosa, Rohnert Park, Petaluma, 48/Santa Rosa, Rohnert Park, Cotati, Petaluma, 54/South County Connector"
2230,757068,16,Santa Rosa Transit Mall,"20/Russian River Area, Forestville, Sebastopol, Santa Rosa, 20X/Russian River Area, Santa Rosa, 22/Sebastopol, Santa Rosa, 29A/Santa Rosa - Sonoma Coast, 29B/Guerneville - Sonoma Coast, 30/Santa Rosa, Sonoma Valley, 30X/Santa Rosa, Sonoma Valley, 34/Santa Rosa, Sonoma, 42/Santa Rosa, Industry West Business Park, 44/Petaluma, JC, SSU, Santa Rosa, 44X/Santa Rosa, Rohnert Park, Petaluma, 46/Santa Rosa, Sonoma State University, Cotati Depot, 48/Santa Rosa, Rohnert Park, Cotati, Petaluma, 48X/Santa Rosa, Rohnert Park, Cotati, Petaluma, 54/South County Connector, 60/Cloverdale, Healdsburg, Windsor, Santa Rosa, 60X/Cloverdale, Healdsburg, Windsor, Santa Rosa, 62/Santa Rosa, County Airport"
2230,757074,17,Ac Santa Rosa Junior College,"20/Russian River Area, Forestville, Sebastopol, Santa Rosa, 20X/Russian River Area, Santa Rosa, 29A/Santa Rosa - Sonoma Coast, 30/Santa Rosa, Sonoma Valley, 30X/Santa Rosa, Sonoma Valley, 44/Petaluma, JC, SSU, Santa Rosa, 44X/Santa Rosa, Rohnert Park, Petaluma, 48/Santa Rosa, Rohnert Park, Cotati, Petaluma, 48X/Santa Rosa, Rohnert Park, Cotati, Petaluma, 54/South County Connector, 57/Kaiser, County Center, SRJC Shuttle, 60/Cloverdale, Healdsburg, Windsor, Santa Rosa, 60X/Cloverdale, Healdsburg, Windsor, Santa Rosa, 62/Santa Rosa, County Airport"
2230,757080,18,County Admin Center (Ventura Ave),"20/Russian River Area, Forestville, Sebastopol, Santa Rosa, 20X/Russian River Area, Santa Rosa, 30/Santa Rosa, Sonoma Valley, 30X/Santa Rosa, Sonoma Valley, 44/Petaluma, JC, SSU, Santa Rosa, 44X/Santa Rosa, Rohnert Park, Petaluma, 48/Santa Rosa, Rohnert Park, Cotati, Petaluma, 48X/Santa Rosa, Rohnert Park, Cotati, Petaluma, 54/South County Connector, 57/Kaiser, County Center, SRJC Shuttle, 60X/Cloverdale, Healdsburg, Windsor, Santa Rosa"
2230,757277,19,Coddingtown,"20/Russian River Area, Forestville, Sebastopol, Santa Rosa, 29A/Santa Rosa - Sonoma Coast, 30/Santa Rosa, Sonoma Valley, 30X/Santa Rosa, Sonoma Valley, 44/Petaluma, JC, SSU, Santa Rosa, 44X/Santa Rosa, Rohnert Park, Petaluma, 48/Santa Rosa, Rohnert Park, Cotati, Petaluma, 54/South County Connector"
2231,757277,1,Coddingtown,"20/Russian River Area, Forestville, Sebastopol, Santa Rosa, 29A/Santa Rosa - Sonoma Coast, 30/Santa Rosa, Sonoma Valley, 30X/Santa Rosa, Sonoma Valley, 44/Petaluma, JC, SSU, Santa Rosa, 44X/Santa Rosa, Rohnert Park, Petaluma, 48/Santa Rosa, Rohnert Park, Cotati, Petaluma, 54/South County Connector"
2231,757284,2,County Admin Center (Ventura Ave),"20/Russian River Area, Forestville, Sebastopol, Santa Rosa, 20X/Russian River Area, Santa Rosa, 30/Santa Rosa, Sonoma Valley, 30X/Santa Rosa, Sonoma Valley, 44/Petaluma, JC, SSU, Santa Rosa, 44X/Santa Rosa, Rohnert Park, Petaluma, 48/Santa Rosa, Rohnert Park, Cotati, Petaluma, 48X/Santa Rosa, Rohnert Park, Cotati, Petaluma, 54/South County Connector, 57/Kaiser, County Center, SRJC Shuttle, 60X/Cloverdale, Healdsburg, Windsor, Santa Rosa"
2231,757291,3,Santa Rosa Junior College,"20/Russian River Area, Forestville, Sebastopol, Santa Rosa, 20X/Russian River Area, Santa Rosa, 29A/Santa Rosa - Sonoma Coast, 30/Santa Rosa, Sonoma Valley, 30X/Santa Rosa, Sonoma Valley, 44/Petaluma, JC, SSU, Santa Rosa, 44X/Santa Rosa, Rohnert Park, Petaluma, 48/Santa Rosa, Rohnert Park, Cotati, Petaluma, 48X/Santa Rosa, Rohnert Park, Cotati, Petaluma, 54/South County Connector, 57/Kaiser, County Center, SRJC Shuttle, 60/Cloverdale, Healdsburg, Windsor, Santa Rosa, 60X/Cloverdale, Healdsburg, Windsor, Santa Rosa, 62/Santa Rosa, County Airport"
2231,757068,4,Santa Rosa Transit Mall,"20/Russian River Area, Forestville, Sebastopol, Santa Rosa, 20X/Russian River Area, Santa Rosa, 22/Sebastopol, Santa Rosa, 29A/Santa Rosa - Sonoma Coast, 29B/Guerneville - Sonoma Coast, 30/Santa Rosa, Sonoma Valley, 30X/Santa Rosa, Sonoma Valley, 34/Santa Rosa, Sonoma, 42/Santa Rosa, Industry West Business Park, 44/Petaluma, JC, SSU, Santa Rosa, 44X/Santa Rosa, Rohnert Park, Petaluma, 46/Santa Rosa, Sonoma State University, Cotati Depot, 48/Santa Rosa, Rohnert Park, Cotati, Petaluma, 48X/Santa Rosa, Rohnert Park, Cotati, Petaluma, 54/South County Connector, 60/Cloverdale, Healdsburg, Windsor, Santa Rosa, 60X/Cloverdale, Healdsburg, Windsor, Santa Rosa, 62/Santa Rosa, County Airport"
2231,757577,5,Santa Rosa Ave & Todd Rd,"44/Petaluma, JC, SSU, Santa Rosa, 44X/Santa Rosa, Rohnert Park, Petaluma, 48/Santa Rosa, Rohnert Park, Cotati, Petaluma, 54/South County Connector"
2231,757581,6,Robert's Lake Rd / Golf Course Dr,"44/Petaluma, JC, SSU, Santa Rosa, 44X/Santa Rosa, Rohnert Park, Petaluma, 48/Santa Rosa, Rohnert Park, Cotati, Petaluma, 54/South County Connector"
2231,757583,7,Redwood Dr & Commerce Blvd,"12/Northern Rohnert Park, 14/Northern Rohnert Park, 44/Petaluma, JC, SSU, Santa Rosa, 44X/Santa Rosa, Rohnert Park, Petaluma, 48/Santa Rosa, Rohnert Park, Cotati, Petaluma"
2231,761115,8,Graton Resort (North Entrance),"12/Northern Rohnert Park, 44/Petaluma, JC, SSU, Santa Rosa, 48/Santa Rosa, Rohnert Park, Cotati, Petaluma"
2231,757591,9,Redwood Dr & RP Expressway (Mattress Firm),"12/Northern Rohnert Park, 14/Northern Rohnert Park, 44/Petaluma, JC, SSU, Santa Rosa, 44X/Santa Rosa, Rohnert Park, Petaluma, 48/Santa Rosa, Rohnert Park, Cotati, Petaluma"
2231,757596,10,Commerce Blvd & RP Expressway,"44/Petaluma, JC, SSU, Santa Rosa, 44X/Santa Rosa, Rohnert Park, Petaluma, 48/Santa Rosa, Rohnert Park, Cotati, Petaluma, 48X/Santa Rosa, Rohnert Park, Cotati, Petaluma, 54/South County Connector"
2231,757600,11,Adrian Dr & Southwest Blvd,"10T/Cotati, Rohnert Park Tripper, 44/Petaluma, JC, SSU, Santa Rosa, 48/Santa Rosa, Rohnert Park, Cotati, Petaluma"
2231,785279,12,East Cotati Ave & Santero Way,"10/Cotati, Rohnert Park, Sonoma State University, 10T/Cotati, Rohnert Park Tripper, 26/Sebastopol, Cotati, Rohnert Park, 44/Petaluma, JC, SSU, Santa Rosa, 46/Santa Rosa, Sonoma State University, Cotati Depot, 52/West County Connector"
2231,848650,13,Sonoma State University - NB,"44/Petaluma, JC, SSU, Santa Rosa, 46/Santa Rosa, Sonoma State University, Cotati Depot"
2231,757607,14,Cotati Hub,"10/Cotati, Rohnert Park, Sonoma State University, 10T/Cotati, Rohnert Park Tripper, 26/Sebastopol, Cotati, Rohnert Park, 48/Santa Rosa, Rohnert Park, Cotati, Petaluma, 48X/Santa Rosa, Rohnert Park, Cotati, Petaluma, 52/West County Connector, 54/South County Connector"
2231,757615,15,Old Redwood Hwy & Petaluma Hill Rd,"30/Santa Rosa, Sonoma Valley, 44/Petaluma, JC, SSU, Santa Rosa, 48/Santa Rosa, Rohnert Park, Cotati, Petaluma, 48X/Santa Rosa, Rohnert Park, Cotati, Petaluma, 54/South County Connector"
2231,757619,16,Petaluma Blvd N & Stony Pt Rd,"48/Santa Rosa, Rohnert Park, Cotati, Petaluma, 48X/Santa Rosa, Rohnert Park, Cotati, Petaluma, 54/South County Connector"
2231,757627,17,Washington & Petaluma Blvd (Downtown Petaluma),"48/Santa Rosa, Rohnert Park, Cotati, Petaluma, 48X/Santa Rosa, Rohnert Park, Cotati, Petaluma, 54/South County Connector"
2231,757641,18,Petaluma Estates MHP,"44/Petaluma, JC, SSU, Santa Rosa"
2231,757653,19,N McDowell Blvd (Petaluma Plaza),"44/Petaluma, JC, SSU, Santa Rosa"
2231,757717,20,Petaluma Transit Mall,"40/Sonoma, Petaluma, 44/Petaluma, JC, SSU, Santa Rosa, 44X/Santa Rosa, Rohnert Park, Petaluma, 48/Santa Rosa, Rohnert Park, Cotati, Petaluma, 48X/Santa Rosa, Rohnert Park, Cotati, Petaluma, 53/East County Connector, 54/South County Connector"
2240,757068,1,Santa Rosa Transit Mall,"20/Russian River Area, Forestville, Sebastopol, Santa Rosa, 20X/Russian River Area, Santa Rosa, 22/Sebastopol, Santa Rosa, 29A/Santa Rosa - Sonoma Coast, 29B/Guerneville - Sonoma Coast, 30/Santa Rosa, Sonoma Valley, 30X/Santa Rosa, Sonoma Valley, 34/Santa Rosa, Sonoma, 42/Santa Rosa, Industry West Business Park, 44/Petaluma, JC, SSU, Santa Rosa, 44X/Santa Rosa, Rohnert Park, Petaluma, 46/Santa Rosa, Sonoma State University, Cotati Depot, 48/Santa Rosa, Rohnert Park, Cotati, Petaluma, 48X/Santa Rosa, Rohnert Park, Cotati, Petaluma, 54/South County Connector, 60/Cloverdale, Healdsburg, Windsor, Santa Rosa, 60X/Cloverdale, Healdsburg, Windsor, Santa Rosa, 62/Santa Rosa, County Airport"
2240,757074,2,Ac Santa Rosa Junior College,"20/Russian River Area, Forestville, Sebastopol, Santa Rosa, 20X/Russian River Area, Santa Rosa, 29A/Santa Rosa - Sonoma Coast, 30/Santa Rosa, Sonoma Valley, 30X/Santa Rosa, Sonoma Valley, 44/Petaluma, JC, SSU, Santa Rosa, 44X/Santa Rosa, Rohnert Park, Petaluma, 48/Santa Rosa, Rohnert Park, Cotati, Petaluma, 48X/Santa Rosa, Rohnert Park, Cotati, Petaluma, 54/South County Connector, 57/Kaiser, County Center, SRJC Shuttle, 60/Cloverdale, Healdsburg, Windsor, Santa Rosa, 60X/Cloverdale, Healdsburg, Windsor, Santa Rosa, 62/Santa Rosa, County Airport"
2240,757087,3,Mendocino Ave & Chanate Rd,"60/Cloverdale, Healdsburg, Windsor, Santa Rosa, 62/Santa Rosa, County Airport"
2240,757091,4,Old Redwood Hwy (Kaiser Stein Bldg),"60/Cloverdale, Healdsburg, Windsor, Santa Rosa, 62/Santa Rosa, County Airport"
2240,757092,5,Old Redwood Hwy & Cardinal Newman HS,"60/Cloverdale, Healdsburg, Windsor, Santa Rosa, 62/Santa Rosa, County Airport"
2240,757103,6,Larkfield Shopping Center,"60/Cloverdale, Healdsburg, Windsor, Santa Rosa"
2240,757225,7,Shiloh Center & Wal-Mart (McFarlane),"60/Cloverdale, Healdsburg, Windsor, Santa Rosa"
2240,757116,8,Old Redwood Hwy & Shiloh Rd,"60/Cloverdale, Healdsburg, Windsor, Santa Rosa"
2240,757120,9,Old Redwood Hwy & Pleasant Ave,"60/Cloverdale, Healdsburg, Windsor, Santa Rosa"
2240,757123,10,Old Redwood Hwy & Lakewood Dr,"60/Cloverdale, Healdsburg, Windsor, Santa Rosa"
2240,757125,11,Windsor River Rd (Windsor Depot),"60/Cloverdale, Healdsburg, Windsor, Santa Rosa"
2240,757126,12,Windsor River Rd & Starr Rd,"60/Cloverdale, Healdsburg, Windsor, Santa Rosa"
2240,757140,13,Healdsburg Plaza,"60/Cloverdale, Healdsburg, Windsor, Santa Rosa, 60X/Cloverdale, Healdsburg, Windsor, Santa Rosa, 67/Healdsburg Shuttle"
2240,757142,14,Healdsburg Ave & Dry Creek Rd,"60/Cloverdale, Healdsburg, Windsor, Santa Rosa, 60X/Cloverdale, Healdsburg, Windsor, Santa Rosa"
2240,757153,15,Geyserville Ave (Geyserville Park & Ride),"60/Cloverdale, Healdsburg, Windsor, Santa Rosa, 60X/Cloverdale, Healdsburg, Windsor, Santa Rosa"
2240,757159,16,Asti,"60/Cloverdale, Healdsburg, Windsor, Santa Rosa, 60X/Cloverdale, Healdsburg, Windsor, Santa Rosa"
2240,757168,17,Cloverdale City Hall & Plaza,"60/Cloverdale, Healdsburg, Windsor, Santa Rosa, 60X/Cloverdale, Healdsburg, Windsor, Santa Rosa, 68/Cloverdale Shuttle"
2241,757168,1,Cloverdale City Hall & Plaza,"60/Cloverdale, Healdsburg, Windsor, Santa Rosa, 60X/Cloverdale, Healdsburg, Windsor, Santa Rosa, 68/Cloverdale Shuttle"
2241,757179,2,Asti,"60/Cloverdale, Healdsburg, Windsor, Santa Rosa"
2241,757186,3,Geyserville Ave (Ac Geyserville Park & Ride),"60/Cloverdale, Healdsburg, Windsor, Santa Rosa, 60X/Cloverdale, Healdsburg, Windsor, Santa Rosa"
2241,757193,4,Healdsburg Ave & Grove St,"60/Cloverdale, Healdsburg, Windsor, Santa Rosa, 60X/Cloverdale, Healdsburg, Windsor, Santa Rosa, 67/Healdsburg Shuttle"
2241,757197,5,Healdsburg Ave & Matheson,"60/Cloverdale, Healdsburg, Windsor, Santa Rosa, 60X/Cloverdale, Healdsburg, Windsor, Santa Rosa"
2241,757204,6,Old Redwood Hwy & Starr Rd,"60/Cloverdale, Healdsburg, Windsor, Santa Rosa"
2241,757210,7,Windsor River Rd (Windsor Depot),"55/Airport Business Park Shuttle, 60/Cloverdale, Healdsburg, Windsor, Santa Rosa, 60X/Cloverdale, Healdsburg, Windsor, Santa Rosa, 62/Santa Rosa, County Airport"
2241,757213,8,Old Redwood Hwy & Lakewood Dr,"60/Cloverdale, Healdsburg, Windsor, Santa Rosa"
2241,757216,9,Old Redwood Hwy & Pleasant Ave,"60/Cloverdale, Healdsburg, Windsor, Santa Rosa"
2241,757225,10,Shiloh Center & Wal-Mart (McFarlane),"60/Cloverdale, Healdsburg, Windsor, Santa Rosa"
2241,757227,11,Old Redwood Hwy & Shiloh Rd,"60/Cloverdale, Healdsburg, Windsor, Santa Rosa"
2241,757269,12,Larkfield Shopping Center,"60/Cloverdale, Healdsburg, Windsor, Santa Rosa"
2241,757273,13,Old Redwood Hwy & Cardinal Newman HS,"60/Cloverdale, Healdsburg, Windsor, Santa Rosa, 62/Santa Rosa, County Airport"
2241,757274,14,Old Redwood Hwy (Kaiser Stein Bldg),"60/Cloverdale, Healdsburg, Windsor, Santa Rosa, 62/Santa Rosa, County Airport"
2241,757288,15,Mendocino Ave & Chanate Rd,"20/Russian River Area, Forestville, Sebastopol, Santa Rosa, 20X/Russian River Area, Santa Rosa, 30/Santa Rosa, Sonoma Valley, 30X/Santa Rosa, Sonoma Valley, 44/Petaluma, JC, SSU, Santa Rosa, 44X/Santa Rosa, Rohnert Park, Petaluma, 48/Santa Rosa, Rohnert Park, Cotati, Petaluma, 48X/Santa Rosa, Rohnert Park, Cotati, Petaluma, 54/South County Connector, 57/Kaiser, County Center, SRJC Shuttle, 60/Cloverdale, Healdsburg, Windsor, Santa Rosa, 60X/Cloverdale, Healdsburg, Windsor, Santa Rosa, 62/Santa Rosa, County Airport"
2241,757291,16,Santa Rosa Junior College,"20/Russian River Area, Forestville, Sebastopol, Santa Rosa, 20X/Russian River Area, Santa Rosa, 29A/Santa Rosa - Sonoma Coast, 30/Santa Rosa, Sonoma Valley, 30X/Santa Rosa, Sonoma Valley, 44/Petaluma, JC, SSU, Santa Rosa, 44X/Santa Rosa, Rohnert Park, Petaluma, 48/Santa Rosa, Rohnert Park, Cotati, Petaluma, 48X/Santa Rosa, Rohnert Park, Cotati, Petaluma, 54/South County Connector, 57/Kaiser, County Center, SRJC Shuttle, 60/Cloverdale, Healdsburg, Windsor, Santa Rosa, 60X/Cloverdale, Healdsburg, Windsor, Santa Rosa, 62/Santa Rosa, County Airport"
2241,757068,17,Santa Rosa Transit Mall,"20/Russian River Area, Forestville, Sebastopol, Santa Rosa, 20X/Russian River Area, Santa Rosa, 22/Sebastopol, Santa Rosa, 29A/Santa Rosa - Sonoma Coast, 29B/Guerneville - Sonoma Coast, 30/Santa Rosa, Sonoma Valley, 30X/Santa Rosa, Sonoma Valley, 34/Santa Rosa, Sonoma, 42/Santa Rosa, Industry West Business Park, 44/Petaluma, JC, SSU, Santa Rosa, 44X/Santa Rosa, Rohnert Park, Petaluma, 46/Santa Rosa, Sonoma State University, Cotati Depot, 48/Santa Rosa, Rohnert Park, Cotati, Petaluma, 48X/Santa Rosa, Rohnert Park, Cotati, Petaluma, 54/South County Connector, 60/Cloverdale, Healdsburg, Windsor, Santa Rosa, 60X/Cloverdale, Healdsburg, Windsor, Santa Rosa, 62/Santa Rosa, County Airport"
2242,757068,1,Santa Rosa Transit Mall,"20/Russian River Area, Forestville, Sebastopol, Santa Rosa, 20X/Russian River Area, Santa Rosa, 22/Sebastopol, Santa Rosa, 29A/Santa Rosa - Sonoma Coast, 29B/Guerneville - Sonoma Coast, 30/Santa Rosa, Sonoma Valley, 30X/Santa Rosa, Sonoma Valley, 34/Santa Rosa, Sonoma, 42/Santa Rosa, Industry West Business Park, 44/Petaluma, JC, SSU, Santa Rosa, 44X/Santa Rosa, Rohnert Park, Petaluma, 46/Santa Rosa, Sonoma State University, Cotati Depot, 48/Santa Rosa, Rohnert Park, Cotati, Petaluma, 48X/Santa Rosa, Rohnert Park, Cotati, Petaluma, 54/South County Connector, 60/Cloverdale, Healdsburg, Windsor, Santa Rosa, 60X/Cloverdale, Healdsburg, Windsor, Santa Rosa, 62/Santa Rosa, County Airport"
2242,757074,2,Ac Santa Rosa Junior College,"20/Russian River Area, Forestville, Sebastopol, Santa Rosa, 20X/Russian River Area, Santa Rosa, 29A/Santa Rosa - Sonoma Coast, 30/Santa Rosa, Sonoma Valley, 30X/Santa Rosa, Sonoma Valley, 44/Petaluma, JC, SSU, Santa Rosa, 44X/Santa Rosa, Rohnert Park, Petaluma, 48/Santa Rosa, Rohnert Park, Cotati, Petaluma, 48X/Santa Rosa, Rohnert Park, Cotati, Petaluma, 54/South County Connector, 57/Kaiser, County Center, SRJC Shuttle, 60/Cloverdale, Healdsburg, Windsor, Santa Rosa, 60X/Cloverdale, Healdsburg, Windsor, Santa Rosa, 62/Santa Rosa, County Airport"
2242,757087,3,Mendocino Ave & Chanate Rd,"60/Cloverdale, Healdsburg, Windsor, Santa Rosa, 62/Santa Rosa, County Airport"
2242,757091,4,Old Redwood Hwy (Kaiser Stein Bldg),"60/Cloverdale, Healdsburg, Windsor, Santa Rosa, 62/Santa Rosa, County Airport"
2242,757092,5,Old Redwood Hwy & Cardinal Newman HS,"60/Cloverdale, Healdsburg, Windsor, Santa Rosa, 62/Santa Rosa, County Airport"
2242,757103,6,Larkfield Shopping Center,"60/Cloverdale, Healdsburg, Windsor, Santa Rosa"
2242,757225,7,Shiloh Center & Wal-Mart (McFarlane),"60/Cloverdale, Healdsburg, Windsor, Santa Rosa"
2242,757116,8,Old Redwood Hwy & Shiloh Rd,"60/Cloverdale, Healdsburg, Windsor, Santa Rosa"
2242,757120,9,Old Redwood Hwy & Pleasant Ave,"60/Cloverdale, Healdsburg, Windsor, Santa Rosa"
2242,757123,10,Old Redwood Hwy & Lakewood Dr,"60/Cloverdale, Healdsburg, Windsor, Santa Rosa"
2242,757125,11,Windsor River Rd (Windsor Depot),"60/Cloverdale, Healdsburg, Windsor, Santa Rosa"
2242,757126,12,Windsor River Rd & Starr Rd,"60/Cloverdale, Healdsburg, Windsor, Santa Rosa"
2242,757140,13,Healdsburg Plaza,"60/Cloverdale, Healdsburg, Windsor, Santa Rosa, 60X/Cloverdale, Healdsburg, Windsor, Santa Rosa, 67/Healdsburg Shuttle"
2242,757142,14,Healdsburg Ave & Dry Creek Rd,"60/Cloverdale, Healdsburg, Windsor, Santa Rosa, 60X/Cloverdale, Healdsburg, Windsor, Santa Rosa"
2242,757153,15,Geyserville Ave (Geyserville Park & Ride),"60/Cloverdale, Healdsburg, Windsor, Santa Rosa, 60X/Cloverdale, Healdsburg, Windsor, Santa Rosa"
2242,757159,16,Asti,"60/Cloverdale, Healdsburg, Windsor, Santa Rosa, 60X/Cloverdale, Healdsburg, Windsor, Santa Rosa"
2242,757168,17,Cloverdale City Hall & Plaza,"60/Cloverdale, Healdsburg, Windsor, Santa Rosa, 60X/Cloverdale, Healdsburg, Windsor, Santa Rosa, 68/Cloverdale Shuttle"
2243,757168,1,Cloverdale City Hall & Plaza,"60/Cloverdale, Healdsburg, Windsor, Santa Rosa, 60X/Cloverdale, Healdsburg, Windsor, Santa Rosa, 68/Cloverdale Shuttle"
2243,757179,2,Asti,"60/Cloverdale, Healdsburg, Windsor, Santa Rosa"
2243,757186,3,Geyserville Ave (Ac Geyserville Park & Ride),"60/Cloverdale, Healdsburg, Windsor, Santa Rosa, 60X/Cloverdale, Healdsburg, Windsor, Santa Rosa"
2243,757193,4,Healdsburg Ave & Grove St,"60/Cloverdale, Healdsburg, Windsor, Santa Rosa, 60X/Cloverdale, Healdsburg, Windsor, Santa Rosa, 67/Healdsburg Shuttle"
2243,757197,5,Healdsburg Ave & Matheson,"60/Cloverdale, Healdsburg, Windsor, Santa Rosa, 60X/Cloverdale, Healdsburg, Windsor, Santa Rosa"
2243,757204,6,Old Redwood Hwy & Starr Rd,"60/Cloverdale, Healdsburg, Windsor, Santa Rosa"
2243,757210,7,Windsor River Rd (Windsor Depot),"55/Airport Business Park Shuttle, 60/Cloverdale, Healdsburg, Windsor, Santa Rosa, 60X/Cloverdale, Healdsburg, Windsor, Santa Rosa, 62/Santa Rosa, County Airport"
2243,757213,8,Old Redwood Hwy & Lakewood Dr,"60/Cloverdale, Healdsburg, Windsor, Santa Rosa"
2243,757216,9,Old Redwood Hwy & Pleasant Ave,"60/Cloverdale, Healdsburg, Windsor, Santa Rosa"
2243,757225,10,Shiloh Center & Wal-Mart (McFarlane),"60/Cloverdale, Healdsburg, Windsor, Santa Rosa"
2243,757227,11,Old Redwood Hwy & Shiloh Rd,"60/Cloverdale, Healdsburg, Windsor, Santa Rosa"
2243,757269,12,Larkfield Shopping Center,"60/Cloverdale, Healdsburg, Windsor, Santa Rosa"
2243,757273,13,Old Redwood Hwy & Cardinal Newman HS,"60/Cloverdale, Healdsburg, Windsor, Santa Rosa, 62/Santa Rosa, County Airport"
2243,757274,14,Old Redwood Hwy (Kaiser Stein Bldg),"60/Cloverdale, Healdsburg, Windsor, Santa Rosa, 62/Santa Rosa, County Airport"
2243,757288,15,Mendocino Ave & Chanate Rd,"20/Russian River Area, Forestville, Sebastopol, Santa Rosa, 20X/Russian River Area, Santa Rosa, 30/Santa Rosa, Sonoma Valley, 30X/Santa Rosa, Sonoma Valley, 44/Petaluma, JC, SSU, Santa Rosa, 44X/Santa Rosa, Rohnert Park, Petaluma, 48/Santa Rosa, Rohnert Park, Cotati, Petaluma, 48X/Santa Rosa, Rohnert Park, Cotati, Petaluma, 54/South County Connector, 57/Kaiser, County Center, SRJC Shuttle, 60/Cloverdale, Healdsburg, Windsor, Santa Rosa, 60X/Cloverdale, Healdsburg, Windsor, Santa Rosa, 62/Santa Rosa, County Airport"
2243,757291,16,Santa Rosa Junior College,"20/Russian River Area, Forestville, Sebastopol, Santa Rosa, 20X/Russian River Area, Santa Rosa, 29A/Santa Rosa - Sonoma Coast, 30/Santa Rosa, Sonoma Valley, 30X/Santa Rosa, Sonoma Valley, 44/Petaluma, JC, SSU, Santa Rosa, 44X/Santa Rosa, Rohnert Park, Petaluma, 48/Santa Rosa, Rohnert Park, Cotati, Petaluma, 48X/Santa Rosa, Rohnert Park, Cotati, Petaluma, 54/South County Connector, 57/Kaiser, County Center, SRJC Shuttle, 60/Cloverdale, Healdsburg, Windsor, Santa Rosa, 60X/Cloverdale, Healdsburg, Windsor, Santa Rosa, 62/Santa Rosa, County Airport"
2243,757068,17,Santa Rosa Transit Mall,"20/Russian River Area, Forestville, Sebastopol, Santa Rosa, 20X/Russian River Area, Santa Rosa, 22/Sebastopol, Santa Rosa, 29A/Santa Rosa - Sonoma Coast, 29B/Guerneville - Sonoma Coast, 30/Santa Rosa, Sonoma Valley, 30X/Santa Rosa, Sonoma Valley, 34/Santa Rosa, Sonoma, 42/Santa Rosa, Industry West Business Park, 44/Petaluma, JC, SSU, Santa Rosa, 44X/Santa Rosa, Rohnert Park, Petaluma, 46/Santa Rosa, Sonoma State University, Cotati Depot, 48/Santa Rosa, Rohnert Park, Cotati, Petaluma, 48X/Santa Rosa, Rohnert Park, Cotati, Petaluma, 54/South County Connector, 60/Cloverdale, Healdsburg, Windsor, Santa Rosa, 60X/Cloverdale, Healdsburg, Windsor, Santa Rosa, 62/Santa Rosa, County Airport"
2246,757068,1,Santa Rosa Transit Mall,"20/Russian River Area, Forestville, Sebastopol, Santa Rosa, 20X/Russian River Area, Santa Rosa, 22/Sebastopol, Santa Rosa, 29A/Santa Rosa - Sonoma Coast, 29B/Guerneville - Sonoma Coast, 30/Santa Rosa, Sonoma Valley, 30X/Santa Rosa, Sonoma Valley, 34/Santa Rosa, Sonoma, 42/Santa Rosa, Industry West Business Park, 44/Petaluma, JC, SSU, Santa Rosa, 44X/Santa Rosa, Rohnert Park, Petaluma, 46/Santa Rosa, Sonoma State University, Cotati Depot, 48/Santa Rosa, Rohnert Park, Cotati, Petaluma, 48X/Santa Rosa, Rohnert Park, Cotati, Petaluma, 54/South County Connector, 60/Cloverdale, Healdsburg, Windsor, Santa Rosa, 60X/Cloverdale, Healdsburg, Windsor, Santa Rosa, 62/Santa Rosa, County Airport"
2246,757074,2,Ac Santa Rosa Junior College,"20/Russian River Area, Forestville, Sebastopol, Santa Rosa, 20X/Russian River Area, Santa Rosa, 29A/Santa Rosa - Sonoma Coast, 30/Santa Rosa, Sonoma Valley, 30X/Santa Rosa, Sonoma Valley, 44/Petaluma, JC, SSU, Santa Rosa, 44X/Santa Rosa, Rohnert Park, Petaluma, 48/Santa Rosa, Rohnert Park, Cotati, Petaluma, 48X/Santa Rosa, Rohnert Park, Cotati, Petaluma, 54/South County Connector, 57/Kaiser, County Center, SRJC Shuttle, 60/Cloverdale, Healdsburg, Windsor, Santa Rosa, 60X/Cloverdale, Healdsburg, Windsor, Santa Rosa, 62/Santa Rosa, County Airport"
2246,757088,3,Mendocino Ave & Bicentennial Way,"20X/Russian River Area, Santa Rosa, 60/Cloverdale, Healdsburg, Windsor, Santa Rosa, 60X/Cloverdale, Healdsburg, Windsor, Santa Rosa, 62/Santa Rosa, County Airport"
2246,757091,4,Old Redwood Hwy (Kaiser Stein Bldg),"60/Cloverdale, Healdsburg, Windsor, Santa Rosa, 62/Santa Rosa, County Airport"
2246,757095,5,Mark West Springs Rd & Old Redwood Hwy,"62/Santa Rosa, County Airport"
2246,757097,6,Fulton Rd & River Rd,"62/Santa Rosa, County Airport"
2246,757098,7,Fulton Rd & Airport Blvd,"62/Santa Rosa, County Airport"
2246,757233,8,Airport Blvd & Aviation Blvd,"62/Santa Rosa, County Airport"
2246,757235,9,Airport Blvd & Brickway Blvd,"55/Airport Business Park Shuttle, 62/Santa Rosa, County Airport"
2246,757241,10,Sonoma Co Airport Terminal,"55/Airport Business Park Shuttle, 62/Santa Rosa, County Airport"
2246,757211,11,Windsor Rd & Windsor Depot,"55/Airport Business Park Shuttle, 56/North County Connector, 60X/Cloverdale, Healdsburg, Windsor, Santa Rosa, 62/Santa Rosa, County Airport, 66/Windsor Shuttle"
2247,757211,1,Windsor Rd & Windsor Depot,"55/Airport Business Park Shuttle, 56/North County Connector, 60X/Cloverdale, Healdsburg, Windsor, Santa Rosa, 62/Santa Rosa, County Airport, 66/Windsor Shuttle"
2247,757241,2,Sonoma Co Airport Terminal,"55/Airport Business Park Shuttle, 62/Santa Rosa, County Airport"
2247,757257,3,Airport Blvd & Brickway Blvd,"55/Airport Business Park Shuttle, 62/Santa Rosa, County Airport"
2247,757258,4,Airport Blvd & SMART Station,"55/Airport Business Park Shuttle, 56/North County Connector, 62/Santa Rosa, County Airport"
2247,757260,5,Fulton Rd & Airport Blvd,"62/Santa Rosa, County Airport"
2247,757261,6,Fulton Rd & River Rd,"62/Santa Rosa, County Airport"
2247,757264,7,Mark West Springs Rd & Old Redwood Hwy,"60/Cloverdale, Healdsburg, Windsor, Santa Rosa, 62/Santa Rosa, County Airport"
2247,757274,8,Old Redwood Hwy (Kaiser Stein Bldg),"60/Cloverdale, Healdsburg, Windsor, Santa Rosa, 62/Santa Rosa, County Airport"
2247,757276,9,Mendocino Ave & Bicentennial Way,"20X/Russian River Area, Santa Rosa, 60/Cloverdale, Healdsburg, Windsor, Santa Rosa, 60X/Cloverdale, Healdsburg, Windsor, Santa Rosa, 62/Santa Rosa, County Airport"
2247,757287,10,Mendocino Ave/ Bicentennial Way,"20X/Russian River Area, Santa Rosa, 60/Cloverdale, Healdsburg, Windsor, Santa Rosa, 62/Santa Rosa, County Airport"
2247,757291,11,Santa Rosa Junior College,"20/Russian River Area, Forestville, Sebastopol, Santa Rosa, 20X/Russian River Area, Santa Rosa, 29A/Santa Rosa - Sonoma Coast, 30/Santa Rosa, Sonoma Valley, 30X/Santa Rosa, Sonoma Valley, 44/Petaluma, JC, SSU, Santa Rosa, 44X/Santa Rosa, Rohnert Park, Petaluma, 48/Santa Rosa, Rohnert Park, Cotati, Petaluma, 48X/Santa Rosa, Rohnert Park, Cotati, Petaluma, 54/South County Connector, 57/Kaiser, County Center, SRJC Shuttle, 60/Cloverdale, Healdsburg, Windsor, Santa Rosa, 60X/Cloverdale, Healdsburg, Windsor, Santa Rosa, 62/Santa Rosa, County Airport"
2247,757068,12,Santa Rosa Transit Mall,"20/Russian River Area, Forestville, Sebastopol, Santa Rosa, 20X/Russian River Area, Santa Rosa, 22/Sebastopol, Santa Rosa, 29A/Santa Rosa - Sonoma Coast, 29B/Guerneville - Sonoma Coast, 30/Santa Rosa, Sonoma Valley, 30X/Santa Rosa, Sonoma Valley, 34/Santa Rosa, Sonoma, 42/Santa Rosa, Industry West Business Park, 44/Petaluma, JC, SSU, Santa Rosa, 44X/Santa Rosa, Rohnert Park, Petaluma, 46/Santa Rosa, Sonoma State University, Cotati Depot, 48/Santa Rosa, Rohnert Park, Cotati, Petaluma, 48X/Santa Rosa, Rohnert Park, Cotati, Petaluma, 54/South County Connector, 60/Cloverdale, Healdsburg, Windsor, Santa Rosa, 60X/Cloverdale, Healdsburg, Windsor, Santa Rosa, 62/Santa Rosa, County Airport"
3713,757296,1,Occidental (Bohemian Hwy & Hill St),"20/Russian River Area, Forestville, Sebastopol, Santa Rosa, 28/Guerneville, Monte Rio"
3713,757297,2,Camp Meeker (Bohemian Hwy & Van Ness Ave),"28/Guerneville, Monte Rio"
3713,757298,3,Monte Rio (Creekside Park),"20/Russian River Area, Forestville, Sebastopol, Santa Rosa, 20X/Russian River Area, Santa Rosa, 28/Guerneville, Monte Rio"
3713,757300,4,Villa Grande,"28/Guerneville, Monte Rio, 29B/Guerneville - Sonoma Coast"
3713,2555755,5,Duncans Mills (Westbound),"28/Guerneville, Monte Rio"
3713,757302,6,Moscow Rd & Casini Ranch,"28/Guerneville, Monte Rio, 29B/Guerneville - Sonoma Coast"
3713,759362,7,Hwy 116 & Bohemian Hwy,"28/Guerneville, Monte Rio"
3713,757313,8,Guerneville Safeway,"20/Russian River Area, Forestville, Sebastopol, Santa Rosa, 20X/Russian River Area, Santa Rosa, 28/Guerneville, Monte Rio, 29B/Guerneville - Sonoma Coast"
3713,2517386,9,Guerneville Library,"28/Guerneville, Monte Rio"
3713,2517387,10,Russian River Senior Center,"28/Guerneville, Monte Rio"
3713,757316,11,Beach/ Orchard,"28/Guerneville, Monte Rio"
3713,757865,12,Guerneville (Bank of America),"20/Russian River Area, Forestville, Sebastopol, Santa Rosa, 20X/Russian River Area, Santa Rosa, 28/Guerneville, Monte Rio, 29B/Guerneville - Sonoma Coast"
3713,757870,13,Monte Rio & Hwy 116,"20/Russian River Area, Forestville, Sebastopol, Santa Rosa, 20X/Russian River Area, Santa Rosa, 28/Guerneville, Monte Rio, 29B/Guerneville - Sonoma Coast"
3713,2555755,14,Duncans Mills (Westbound),"28/Guerneville, Monte Rio"
3713,757302,15,Moscow Rd & Casini Ranch,"28/Guerneville, Monte Rio, 29B/Guerneville - Sonoma Coast"
3713,757300,16,Villa Grande,"28/Guerneville, Monte Rio, 29B/Guerneville - Sonoma Coast"
3713,757872,17,Main St & Starett Hill Rd,"20/Russian River Area, Forestville, Sebastopol, Santa Rosa, 20X/Russian River Area, Santa Rosa, 28/Guerneville, Monte Rio"
3713,757873,18,Camp Meeker (Bohemian Hwy & Market),"28/Guerneville, Monte Rio"
3713,757296,19,Occidental (Bohemian Hwy & Hill St),"20/Russian River Area, Forestville, Sebastopol, Santa Rosa, 28/Guerneville, Monte Rio"
4304,757751,1,Sonoma State University,"10/Cotati, Rohnert Park, Sonoma State University, 26/Sebastopol, Cotati, Rohnert Park, 30/Santa Rosa, Sonoma Valley, 44/Petaluma, JC, SSU, Santa Rosa, 46/Santa Rosa, Sonoma State University, Cotati Depot, 52/West County Connector"
4304,2329762,2,Camino Colegio & Manchester (Ac Credo HS),"26/Sebastopol, Cotati, Rohnert Park, 30/Santa Rosa, Sonoma Valley, 44/Petaluma, JC, SSU, Santa Rosa, 46/Santa Rosa, Sonoma State University, Cotati Depot"
4304,757768,3,East Cotati Ave & Ryan Lane,"10T/Cotati, Rohnert Park Tripper, 26/Sebastopol, Cotati, Rohnert Park, 44/Petaluma, JC, SSU, Santa Rosa"
4304,757677,4,Old Redwood Hwy & La Plaza,"26/Sebastopol, Cotati, Rohnert Park, 48/Santa Rosa, Rohnert Park, Cotati, Petaluma, 48X/Santa Rosa, Rohnert Park, Cotati, Petaluma, 54/South County Connector"
4304,757930,5,Hwy 116 & Redwood Dr,"26/Sebastopol, Cotati, Rohnert Park"
4304,757810,6,Hwy 116 & Lone Pine Rd,"26/Sebastopol, Cotati, Rohnert Park"
4304,757816,7,Fairfield Inn,"26/Sebastopol, Cotati, Rohnert Park"
4304,757545,8,Laguna Park Way & Sebastopol Transit Hub,"20/Russian River Area, Forestville, Sebastopol, Santa Rosa, 22/Sebastopol, Santa Rosa, 26/Sebastopol, Cotati, Rohnert Park, 29A/Santa Rosa - Sonoma Coast, 52/West County Connector"
4304,757553,9,Graton,"20/Russian River Area, Forestville, Sebastopol, Santa Rosa, 26/Sebastopol, Cotati, Rohnert Park"
4304,757849,10,Forestville (Downtown),"20/Russian River Area, Forestville, Sebastopol, Santa Rosa, 26/Sebastopol, Cotati, Rohnert Park"
4304,757330,11,Mirabel Rd Ext & River Rd,"20/Russian River Area, Forestville, Sebastopol, Santa Rosa, 20X/Russian River Area, Santa Rosa, 26/Sebastopol, Cotati, Rohnert Park"
4305,757330,1,Mirabel Rd Ext & River Rd,"20/Russian River Area, Forestville, Sebastopol, Santa Rosa, 20X/Russian River Area, Santa Rosa, 26/Sebastopol, Cotati, Rohnert Park"
4305,757336,2,Forestville (Downtown),"20/Russian River Area, Forestville, Sebastopol, Santa Rosa, 26/Sebastopol, Cotati, Rohnert Park"
4305,757342,3,Graton,"20/Russian River Area, Forestville, Sebastopol, Santa Rosa, 26/Sebastopol, Cotati, Rohnert Park"
4305,757545,4,Laguna Park Way & Sebastopol Transit Hub,"20/Russian River Area, Forestville, Sebastopol, Santa Rosa, 22/Sebastopol, Santa Rosa, 26/Sebastopol, Cotati, Rohnert Park, 29A/Santa Rosa - Sonoma Coast, 52/West County Connector"
4305,757770,5,Sebastopol Post Office,"20/Russian River Area, Forestville, Sebastopol, Santa Rosa, 24/Sebastopol Shuttle, 26/Sebastopol, Cotati, Rohnert Park, 29A/Santa Rosa - Sonoma Coast, 52/West County Connector"
4305,757779,6,Hwy 116 & Lone Pine Rd,"26/Sebastopol, Cotati, Rohnert Park, 52/West County Connector"
4305,757786,7,Hwy 116 & Redwood Dr,"26/Sebastopol, Cotati, Rohnert Park, 52/West County Connector"
4305,757607,8,Cotati Hub,"10/Cotati, Rohnert Park, Sonoma State University, 10T/Cotati, Rohnert Park Tripper, 26/Sebastopol, Cotati, Rohnert Park, 48/Santa Rosa, Rohnert Park, Cotati, Petaluma, 48X/Santa Rosa, Rohnert Park, Cotati, Petaluma, 52/West County Connector, 54/South County Connector"
4305,785279,9,East Cotati Ave & Santero Way,"10/Cotati, Rohnert Park, Sonoma State University, 10T/Cotati, Rohnert Park Tripper, 26/Sebastopol, Cotati, Rohnert Park, 44/Petaluma, JC, SSU, Santa Rosa, 46/Santa Rosa, Sonoma State University, Cotati Depot, 52/West County Connector"
4305,757751,11,Sonoma State University,"10/Cotati, Rohnert Park, Sonoma State University, 26/Sebastopol, Cotati, Rohnert Park, 30/Santa Rosa, Sonoma Valley, 44/Petaluma, JC, SSU, Santa Rosa, 46/Santa Rosa, Sonoma State University, Cotati Depot, 52/West County Connector"
4401,810950,1,Cloverdale Blvd & Treadway Blvd (Ray's Market),68/Cloverdale Shuttle
4401,810174,2,Brookside Dr & Cloverdale Blvd,68/Cloverdale Shuttle
4401,810175,3,Blair St & Clark Ave,68/Cloverdale Shuttle
4401,810176,4,South St & Cloverdale Blvd,68/Cloverdale Shuttle
4401,757168,5,Cloverdale City Hall & Plaza,"60/Cloverdale, Healdsburg, Windsor, Santa Rosa, 60X/Cloverdale, Healdsburg, Windsor, Santa Rosa, 68/Cloverdale Shuttle"
4401,810163,6,North Main St & Fourth St,68/Cloverdale Shuttle
4401,757169,7,Kings Valley - Clubhouse,68/Cloverdale Shuttle
4401,810165,8,Cloverdale Blvd & School St,68/Cloverdale Shuttle
4401,810166,9,Champlain Ave & Cloverdale Blvd,68/Cloverdale Shuttle
4401,810168,10,Jefferson St & School St,68/Cloverdale Shuttle
4401,810949,11,Jefferson St & W First St,68/Cloverdale Shuttle
4401,757170,12,Cloverdale Blvd & Healdsburg Ave,"60/Cloverdale, Healdsburg, Windsor, Santa Rosa, 68/Cloverdale Shuttle"
4401,810171,13,Cherry Creek Rd & Cloverdale Blvd,68/Cloverdale Shuttle
4401,2335912,14,Treadway Blvd & Cloverdale Blvd,68/Cloverdale Shuttle
4401,824783,15,Cloverdale Blvd & Treadway Blvd (CVS Store),68/Cloverdale Shuttle
4401,810950,16,Cloverdale Blvd & Treadway Blvd (Ray's Market),68/Cloverdale Shuttle
4408,757874,1,Hunter Dr & Senior Center,"10/Cotati, Rohnert Park, Sonoma State University, 10T/Cotati, Rohnert Park Tripper, 12/Northern Rohnert Park, 12T/Northern Rohnert Park Tripper, 14/Northern Rohnert Park, 14T/Northern Rohnert Park Tripper"
4408,757607,2,Cotati Hub,"10/Cotati, Rohnert Park, Sonoma State University, 10T/Cotati, Rohnert Park Tripper, 26/Sebastopol, Cotati, Rohnert Park, 48/Santa Rosa, Rohnert Park, Cotati, Petaluma, 48X/Santa Rosa, Rohnert Park, Cotati, Petaluma, 52/West County Connector, 54/South County Connector"
4408,757878,3,Lancaster/Myrtle,"10/Cotati, Rohnert Park, Sonoma State University, 10T/Cotati, Rohnert Park Tripper"
4408,757794,4,E Cotati/Lancaster,"10/Cotati, Rohnert Park, Sonoma State University, 10T/Cotati, Rohnert Park Tripper, 26/Sebastopol, Cotati, Rohnert Park, 44/Petaluma, JC, SSU, Santa Rosa, 52/West County Connector"
4408,757751,6,Sonoma State University,"10/Cotati, Rohnert Park, Sonoma State University, 26/Sebastopol, Cotati, Rohnert Park, 30/Santa Rosa, Sonoma Valley, 44/Petaluma, JC, SSU, Santa Rosa, 46/Santa Rosa, Sonoma State University, Cotati Depot, 52/West County Connector"
4408,757882,7,Rancho Cotate High School,"10/Cotati, Rohnert Park, Sonoma State University, 10T/Cotati, Rohnert Park Tripper, 12/Northern Rohnert Park, 12T/Northern Rohnert Park Tripper, 14/Northern Rohnert Park, 14T/Northern Rohnert Park Tripper"
4408,757686,8,Arlen/Santa Alicia,"10/Cotati, Rohnert Park, Sonoma State University, 10T/Cotati, Rohnert Park Tripper, 44/Petaluma, JC, SSU, Santa Rosa, 48/Santa Rosa, Rohnert Park, Cotati, Petaluma"
4408,757689,9,Commerce Blvd & RP Expressway,"10/Cotati, Rohnert Park, Sonoma State University, 10T/Cotati, Rohnert Park Tripper, 12/Northern Rohnert Park, 12T/Northern Rohnert Park Tripper, 14/Northern Rohnert Park, 14T/Northern Rohnert Park Tripper, 44/Petaluma, JC, SSU, Santa Rosa, 44X/Santa Rosa, Rohnert Park, Petaluma, 48/Santa Rosa, Rohnert Park, Cotati, Petaluma, 48X/Santa Rosa, Rohnert Park, Cotati, Petaluma, 54/South County Connector"
4408,757909,10,Raley's Town Center,"10/Cotati, Rohnert Park, Sonoma State University, 10T/Cotati, Rohnert Park Tripper, 12/Northern Rohnert Park, 12T/Northern Rohnert Park Tripper, 14/Northern Rohnert Park"
4408,757874,11,Hunter Dr & Senior Center,"10/Cotati, Rohnert Park, Sonoma State University, 10T/Cotati, Rohnert Park Tripper, 12/Northern Rohnert Park, 12T/Northern Rohnert Park Tripper, 14/Northern Rohnert Park, 14T/Northern Rohnert Park Tripper"
4410,757874,1,Hunter Dr & Senior Center,"10/Cotati, Rohnert Park, Sonoma State University, 10T/Cotati, Rohnert Park Tripper, 12/Northern Rohnert Park, 12T/Northern Rohnert Park Tripper, 14/Northern Rohnert Park, 14T/Northern Rohnert Park Tripper"
4410,757902,2,Rancho Verde Mobile Home Park,"12/Northern Rohnert Park, 12T/Northern Rohnert Park Tripper, 14/Northern Rohnert Park, 14T/Northern Rohnert Park Tripper"
4410,757904,3,Reading Cinemas (on Labath Ave),"12/Northern Rohnert Park, 12T/Northern Rohnert Park Tripper, 14/Northern Rohnert Park, 14T/Northern Rohnert Park Tripper"
4410,757927,4,Rancho Feliz Mobile Home Park ,"12/Northern Rohnert Park, 12T/Northern Rohnert Park Tripper, 14/Northern Rohnert Park, 14T/Northern Rohnert Park Tripper"
4410,757907,5,Chase Bank,"10/Cotati, Rohnert Park, Sonoma State University, 10T/Cotati, Rohnert Park Tripper, 12/Northern Rohnert Park, 12T/Northern Rohnert Park Tripper, 14/Northern Rohnert Park, 14T/Northern Rohnert Park Tripper, 54/South County Connector"
4410,757915,6,Country Club/ Golf Course,"12/Northern Rohnert Park, 12T/Northern Rohnert Park Tripper, 14/Northern Rohnert Park, 14T/Northern Rohnert Park Tripper, 54/South County Connector"
4410,757922,7,Fairway/ Country Club,"12/Northern Rohnert Park, 12T/Northern Rohnert Park Tripper, 14/Northern Rohnert Park, 14T/Northern Rohnert Park Tripper"
4410,757932,8,Snyder Ln & Holly Ave,"12/Northern Rohnert Park, 12T/Northern Rohnert Park Tripper, 14/Northern Rohnert Park, 14T/Northern Rohnert Park Tripper, 46/Santa Rosa, Sonoma State University, Cotati Depot"
4410,757937,9,Lawrence Jones Middle School,"10T/Cotati, Rohnert Park Tripper, 12/Northern Rohnert Park, 12T/Northern Rohnert Park Tripper, 14/Northern Rohnert Park, 14T/Northern Rohnert Park Tripper, 46/Santa Rosa, Sonoma State University, Cotati Depot"
4410,757882,10,Rancho Cotate High School,"10/Cotati, Rohnert Park, Sonoma State University, 10T/Cotati, Rohnert Park Tripper, 12/Northern Rohnert Park, 12T/Northern Rohnert Park Tripper, 14/Northern Rohnert Park, 14T/Northern Rohnert Park Tripper"
4410,757893,11,Country Club Dr & Civic Center Dr,"10T/Cotati, Rohnert Park Tripper, 12/Northern Rohnert Park, 12T/Northern Rohnert Park Tripper, 14/Northern Rohnert Park, 14T/Northern Rohnert Park Tripper"
4410,757894,12,Rohnert Park Library,"10T/Cotati, Rohnert Park Tripper, 12/Northern Rohnert Park, 12T/Northern Rohnert Park Tripper, 14/Northern Rohnert Park, 54/South County Connector"
4410,757696,13,Kaiser Medical Center,"12/Northern Rohnert Park, 14/Northern Rohnert Park"
4410,757584,14,Redwood Dr / Golf Course Dr (Graton Resort),"12/Northern Rohnert Park, 14/Northern Rohnert Park, 44/Petaluma, JC, SSU, Santa Rosa, 44X/Santa Rosa, Rohnert Park, Petaluma, 48/Santa Rosa, Rohnert Park, Cotati, Petaluma"
4410,757582,15,Wal-Mart (parking lot),"12/Northern Rohnert Park, 14/Northern Rohnert Park"
4410,757587,16,Labath & Martin,"12/Northern Rohnert Park, 14/Northern Rohnert Park, 44/Petaluma, JC, SSU, Santa Rosa, 44X/Santa Rosa, Rohnert Park, Petaluma"
4410,757909,17,Raley's Town Center,"10/Cotati, Rohnert Park, Sonoma State University, 10T/Cotati, Rohnert Park Tripper, 12/Northern Rohnert Park, 12T/Northern Rohnert Park Tripper, 14/Northern Rohnert Park"
4410,757874,18,Hunter Dr & Senior Center,"10/Cotati, Rohnert Park, Sonoma State University, 10T/Cotati, Rohnert Park Tripper, 12/Northern Rohnert Park, 12T/Northern Rohnert Park Tripper, 14/Northern Rohnert Park, 14T/Northern Rohnert Park Tripper"
4577,757068,1,Santa Rosa Transit Mall,"20/Russian River Area, Forestville, Sebastopol, Santa Rosa, 20X/Russian River Area, Santa Rosa, 22/Sebastopol, Santa Rosa, 29A/Santa Rosa - Sonoma Coast, 29B/Guerneville - Sonoma Coast, 30/Santa Rosa, Sonoma Valley, 30X/Santa Rosa, Sonoma Valley, 34/Santa Rosa, Sonoma, 42/Santa Rosa, Industry West Business Park, 44/Petaluma, JC, SSU, Santa Rosa, 44X/Santa Rosa, Rohnert Park, Petaluma, 46/Santa Rosa, Sonoma State University, Cotati Depot, 48/Santa Rosa, Rohnert Park, Cotati, Petaluma, 48X/Santa Rosa, Rohnert Park, Cotati, Petaluma, 54/South County Connector, 60/Cloverdale, Healdsburg, Windsor, Santa Rosa, 60X/Cloverdale, Healdsburg, Windsor, Santa Rosa, 62/Santa Rosa, County Airport"
4577,757074,2,Ac Santa Rosa Junior College,"20/Russian River Area, Forestville, Sebastopol, Santa Rosa, 20X/Russian River Area, Santa Rosa, 29A/Santa Rosa - Sonoma Coast, 30/Santa Rosa, Sonoma Valley, 30X/Santa Rosa, Sonoma Valley, 44/Petaluma, JC, SSU, Santa Rosa, 44X/Santa Rosa, Rohnert Park, Petaluma, 48/Santa Rosa, Rohnert Park, Cotati, Petaluma, 48X/Santa Rosa, Rohnert Park, Cotati, Petaluma, 54/South County Connector, 57/Kaiser, County Center, SRJC Shuttle, 60/Cloverdale, Healdsburg, Windsor, Santa Rosa, 60X/Cloverdale, Healdsburg, Windsor, Santa Rosa, 62/Santa Rosa, County Airport"
4577,757087,3,Mendocino Ave & Chanate Rd,"60/Cloverdale, Healdsburg, Windsor, Santa Rosa, 62/Santa Rosa, County Airport"
4577,757091,4,Old Redwood Hwy (Kaiser Stein Bldg),"60/Cloverdale, Healdsburg, Windsor, Santa Rosa, 62/Santa Rosa, County Airport"
4577,757092,5,Old Redwood Hwy & Cardinal Newman HS,"60/Cloverdale, Healdsburg, Windsor, Santa Rosa, 62/Santa Rosa, County Airport"
4577,757103,6,Larkfield Shopping Center,"60/Cloverdale, Healdsburg, Windsor, Santa Rosa"
4577,757225,7,Shiloh Center & Wal-Mart (McFarlane),"60/Cloverdale, Healdsburg, Windsor, Santa Rosa"
4577,757116,8,Old Redwood Hwy & Shiloh Rd,"60/Cloverdale, Healdsburg, Windsor, Santa Rosa"
4577,757120,9,Old Redwood Hwy & Pleasant Ave,"60/Cloverdale, Healdsburg, Windsor, Santa Rosa"
4577,757123,10,Old Redwood Hwy & Lakewood Dr,"60/Cloverdale, Healdsburg, Windsor, Santa Rosa"
4577,757125,11,Windsor River Rd (Windsor Depot),"60/Cloverdale, Healdsburg, Windsor, Santa Rosa"
4577,757126,12,Windsor River Rd & Starr Rd,"60/Cloverdale, Healdsburg, Windsor, Santa Rosa"
4577,757140,13,Healdsburg Plaza,"60/Cloverdale, Healdsburg, Windsor, Santa Rosa, 60X/Cloverdale, Healdsburg, Windsor, Santa Rosa, 67/Healdsburg Shuttle"
4577,757142,14,Healdsburg Ave & Dry Creek Rd,"60/Cloverdale, Healdsburg, Windsor, Santa Rosa, 60X/Cloverdale, Healdsburg, Windsor, Santa Rosa"
4577,757153,15,Geyserville Ave (Geyserville Park & Ride),"60/Cloverdale, Healdsburg, Windsor, Santa Rosa, 60X/Cloverdale, Healdsburg, Windsor, Santa Rosa"
4577,757159,16,Asti,"60/Cloverdale, Healdsburg, Windsor, Santa Rosa, 60X/Cloverdale, Healdsburg, Windsor, Santa Rosa"
4577,757168,17,Cloverdale City Hall & Plaza,"60/Cloverdale, Healdsburg, Windsor, Santa Rosa, 60X/Cloverdale, Healdsburg, Windsor, Santa Rosa, 68/Cloverdale Shuttle"
4578,757168,1,Cloverdale City Hall & Plaza,"60/Cloverdale, Healdsburg, Windsor, Santa Rosa, 60X/Cloverdale, Healdsburg, Windsor, Santa Rosa, 68/Cloverdale Shuttle"
4578,757179,2,Asti,"60/Cloverdale, Healdsburg, Windsor, Santa Rosa"
4578,757186,3,Geyserville Ave (Ac Geyserville Park & Ride),"60/Cloverdale, Healdsburg, Windsor, Santa Rosa, 60X/Cloverdale, Healdsburg, Windsor, Santa Rosa"
4578,757193,4,Healdsburg Ave & Grove St,"60/Cloverdale, Healdsburg, Windsor, Santa Rosa, 60X/Cloverdale, Healdsburg, Windsor, Santa Rosa, 67/Healdsburg Shuttle"
4578,757197,5,Healdsburg Ave & Matheson,"60/Cloverdale, Healdsburg, Windsor, Santa Rosa, 60X/Cloverdale, Healdsburg, Windsor, Santa Rosa"
4578,757204,6,Old Redwood Hwy & Starr Rd,"60/Cloverdale, Healdsburg, Windsor, Santa Rosa"
4578,757210,7,Windsor River Rd (Windsor Depot),"55/Airport Business Park Shuttle, 60/Cloverdale, Healdsburg, Windsor, Santa Rosa, 60X/Cloverdale, Healdsburg, Windsor, Santa Rosa, 62/Santa Rosa, County Airport"
4578,757213,8,Old Redwood Hwy & Lakewood Dr,"60/Cloverdale, Healdsburg, Windsor, Santa Rosa"
4578,757216,9,Old Redwood Hwy & Pleasant Ave,"60/Cloverdale, Healdsburg, Windsor, Santa Rosa"
4578,757225,10,Shiloh Center & Wal-Mart (McFarlane),"60/Cloverdale, Healdsburg, Windsor, Santa Rosa"
4578,757227,11,Old Redwood Hwy & Shiloh Rd,"60/Cloverdale, Healdsburg, Windsor, Santa Rosa"
4578,757269,12,Larkfield Shopping Center,"60/Cloverdale, Healdsburg, Windsor, Santa Rosa"
4578,757273,13,Old Redwood Hwy & Cardinal Newman HS,"60/Cloverdale, Healdsburg, Windsor, Santa Rosa, 62/Santa Rosa, County Airport"
4578,757274,14,Old Redwood Hwy (Kaiser Stein Bldg),"60/Cloverdale, Healdsburg, Windsor, Santa Rosa, 62/Santa Rosa, County Airport"
4578,757288,15,Mendocino Ave & Chanate Rd,"20/Russian River Area, Forestville, Sebastopol, Santa Rosa, 20X/Russian River Area, Santa Rosa, 30/Santa Rosa, Sonoma Valley, 30X/Santa Rosa, Sonoma Valley, 44/Petaluma, JC, SSU, Santa Rosa, 44X/Santa Rosa, Rohnert Park, Petaluma, 48/Santa Rosa, Rohnert Park, Cotati, Petaluma, 48X/Santa Rosa, Rohnert Park, Cotati, Petaluma, 54/South County Connector, 57/Kaiser, County Center, SRJC Shuttle, 60/Cloverdale, Healdsburg, Windsor, Santa Rosa, 60X/Cloverdale, Healdsburg, Windsor, Santa Rosa, 62/Santa Rosa, County Airport"
4578,757291,16,Santa Rosa Junior College,"20/Russian River Area, Forestville, Sebastopol, Santa Rosa, 20X/Russian River Area, Santa Rosa, 29A/Santa Rosa - Sonoma Coast, 30/Santa Rosa, Sonoma Valley, 30X/Santa Rosa, Sonoma Valley, 44/Petaluma, JC, SSU, Santa Rosa, 44X/Santa Rosa, Rohnert Park, Petaluma, 48/Santa Rosa, Rohnert Park, Cotati, Petaluma, 48X/Santa Rosa, Rohnert Park, Cotati, Petaluma, 54/South County Connector, 57/Kaiser, County Center, SRJC Shuttle, 60/Cloverdale, Healdsburg, Windsor, Santa Rosa, 60X/Cloverdale, Healdsburg, Windsor, Santa Rosa, 62/Santa Rosa, County Airport"
4578,757068,17,Santa Rosa Transit Mall,"20/Russian River Area, Forestville, Sebastopol, Santa Rosa, 20X/Russian River Area, Santa Rosa, 22/Sebastopol, Santa Rosa, 29A/Santa Rosa - Sonoma Coast, 29B/Guerneville - Sonoma Coast, 30/Santa Rosa, Sonoma Valley, 30X/Santa Rosa, Sonoma Valley, 34/Santa Rosa, Sonoma, 42/Santa Rosa, Industry West Business Park, 44/Petaluma, JC, SSU, Santa Rosa, 44X/Santa Rosa, Rohnert Park, Petaluma, 46/Santa Rosa, Sonoma State University, Cotati Depot, 48/Santa Rosa, Rohnert Park, Cotati, Petaluma, 48X/Santa Rosa, Rohnert Park, Cotati, Petaluma, 54/South County Connector, 60/Cloverdale, Healdsburg, Windsor, Santa Rosa, 60X/Cloverdale, Healdsburg, Windsor, Santa Rosa, 62/Santa Rosa, County Airport"
4633,758010,1,Windsor Depot (Emily Rose Circle),66/Windsor Shuttle
4633,758012,2,Windsor Rd & Plant Rd - Windsor HS,"55/Airport Business Park Shuttle, 62/Santa Rosa, County Airport, 66/Windsor Shuttle"
4633,4160894,3,Oak Park St @ Windsor River Rd,66/Windsor Shuttle
4633,758016,4,Windsor Rd & Mitchell Ln,66/Windsor Shuttle
4633,758021,5,Conde Ln (Windsor MHP),66/Windsor Shuttle
4633,757112,6,Shiloh Center & Wal-Mart (Hembree),"60/Cloverdale, Healdsburg, Windsor, Santa Rosa, 66/Windsor Shuttle"
4633,758026,7,Hembree Ln & Old Redwood Hwy,66/Windsor Shuttle
4633,758027,8,Hembree Ln & (driveway),66/Windsor Shuttle
4633,758033,9,Foothill Regional Park,66/Windsor Shuttle
4633,758037,10,Brooks Rd & Foothill Dr,66/Windsor Shuttle
4633,758038,11,Brooks Rd & Glen Miller Dr (Lakewood Village),66/Windsor Shuttle
4633,758039,12,Raley's Shopping Center,66/Windsor Shuttle
4633,758045,13,Arata Ln & Old Redwood Hwy,66/Windsor Shuttle
4633,758010,14,Windsor Depot (Emily Rose Circle),66/Windsor Shuttle
4634,921,1,Safeway,67/Healdsburg Shuttle
4634,757140,2,Healdsburg Plaza,"60/Cloverdale, Healdsburg, Windsor, Santa Rosa, 60X/Cloverdale, Healdsburg, Windsor, Santa Rosa, 67/Healdsburg Shuttle"
4634,948,3,CVS (Piper St),67/Healdsburg Shuttle
4634,936,4,Across from Rite Aid,67/Healdsburg Shuttle
4634,757144,5,Grove St & Chaquita Rd,"60/Cloverdale, Healdsburg, Windsor, Santa Rosa, 67/Healdsburg Shuttle"
4634,940,6,Parkland Farms,67/Healdsburg Shuttle
4634,943,7,March Ave & Healdsburg Ave,67/Healdsburg Shuttle
4634,945,8,Alliance Medical Center,67/Healdsburg Shuttle
4634,948,9,CVS (Piper St),67/Healdsburg Shuttle
4634,933,10,Senior Center,67/Healdsburg Shuttle
4634,921,11,Safeway,67/Healdsburg Shuttle
4635,921,1,Safeway,67/Healdsburg Shuttle
4635,925,2,Catholic Church (Matheson St),67/Healdsburg Shuttle
4635,926,3,Fitch Mountain Terrace,67/Healdsburg Shuttle
4635,928,4,Riverview Club House,67/Healdsburg Shuttle
4635,929,5,Riverside Club House,67/Healdsburg Shuttle
4635,930,6,Rivers Bend Club House,67/Healdsburg Shuttle
4635,924,7,Russian River Pines Apartments,67/Healdsburg Shuttle
4635,923,8,Russian River Trailer Park,67/Healdsburg Shuttle
4635,757138,9,Healdsburg Ave & Exchange Way,"60/Cloverdale, Healdsburg, Windsor, Santa Rosa, 60X/Cloverdale, Healdsburg, Windsor, Santa Rosa, 67/Healdsburg Shuttle"
4635,933,10,Senior Center,67/Healdsburg Shuttle
4635,921,11,Safeway,67/Healdsburg Shuttle
5556,757277,1,Coddingtown,"20/Russian River Area, Forestville, Sebastopol, Santa Rosa, 29A/Santa Rosa - Sonoma Coast, 30/Santa Rosa, Sonoma Valley, 30X/Santa Rosa, Sonoma Valley, 44/Petaluma, JC, SSU, Santa Rosa, 44X/Santa Rosa, Rohnert Park, Petaluma, 48/Santa Rosa, Rohnert Park, Cotati, Petaluma, 54/South County Connector"
5556,757291,2,Santa Rosa Junior College,"20/Russian River Area, Forestville, Sebastopol, Santa Rosa, 20X/Russian River Area, Santa Rosa, 29A/Santa Rosa - Sonoma Coast, 30/Santa Rosa, Sonoma Valley, 30X/Santa Rosa, Sonoma Valley, 44/Petaluma, JC, SSU, Santa Rosa, 44X/Santa Rosa, Rohnert Park, Petaluma, 48/Santa Rosa, Rohnert Park, Cotati, Petaluma, 48X/Santa Rosa, Rohnert Park, Cotati, Petaluma, 54/South County Connector, 57/Kaiser, County Center, SRJC Shuttle, 60/Cloverdale, Healdsburg, Windsor, Santa Rosa, 60X/Cloverdale, Healdsburg, Windsor, Santa Rosa, 62/Santa Rosa, County Airport"
5556,757068,3,Santa Rosa Transit Mall,"20/Russian River Area, Forestville, Sebastopol, Santa Rosa, 20X/Russian River Area, Santa Rosa, 22/Sebastopol, Santa Rosa, 29A/Santa Rosa - Sonoma Coast, 29B/Guerneville - Sonoma Coast, 30/Santa Rosa, Sonoma Valley, 30X/Santa Rosa, Sonoma Valley, 34/Santa Rosa, Sonoma, 42/Santa Rosa, Industry West Business Park, 44/Petaluma, JC, SSU, Santa Rosa, 44X/Santa Rosa, Rohnert Park, Petaluma, 46/Santa Rosa, Sonoma State University, Cotati Depot, 48/Santa Rosa, Rohnert Park, Cotati, Petaluma, 48X/Santa Rosa, Rohnert Park, Cotati, Petaluma, 54/South County Connector, 60/Cloverdale, Healdsburg, Windsor, Santa Rosa, 60X/Cloverdale, Healdsburg, Windsor, Santa Rosa, 62/Santa Rosa, County Airport"
5556,757381,4,Memorial Hospital,"30/Santa Rosa, Sonoma Valley, 30X/Santa Rosa, Sonoma Valley, 34/Santa Rosa, Sonoma"
5556,757383,5,Montgomery Village,"30/Santa Rosa, Sonoma Valley, 30X/Santa Rosa, Sonoma Valley, 34/Santa Rosa, Sonoma"
5556,757392,6,St Francis Ctr (Hwy 12 & Calistoga Rd),"30/Santa Rosa, Sonoma Valley, 30X/Santa Rosa, Sonoma Valley, 34/Santa Rosa, Sonoma"
5556,757400,7,Oakmont Dr & White Oak,"30/Santa Rosa, Sonoma Valley"
5556,757404,8,Ac Oakmont Golf Course,"30/Santa Rosa, Sonoma Valley"
5556,757405,9,Valley Oaks & Pythian Rd,"30/Santa Rosa, Sonoma Valley"
5556,757409,10,Los Guilicos,"30/Santa Rosa, Sonoma Valley"
5556,757413,11,Kenwood (Hwy 12 & Greene St),"30/Santa Rosa, Sonoma Valley, 30X/Santa Rosa, Sonoma Valley, 34/Santa Rosa, Sonoma, 38/Sonoma Valley, San Rafael"
5556,757420,12,Glen Ellen (Arnold Dr & London Ranch Rd),"30/Santa Rosa, Sonoma Valley, 38/Sonoma Valley, San Rafael"
5556,757422,13,Sonoma Dev Center,"30/Santa Rosa, Sonoma Valley, 38/Sonoma Valley, San Rafael"
5556,757426,14,Hanna Boys Center,"30/Santa Rosa, Sonoma Valley, 38/Sonoma Valley, San Rafael"
5556,757432,15,Boyes Hot Springs,"30/Santa Rosa, Sonoma Valley, 30X/Santa Rosa, Sonoma Valley, 32/Sonoma Valley, 34/Santa Rosa, Sonoma, 38/Sonoma Valley, San Rafael"
5556,757442,16,El Verano (Verano Ave & Bay St),"30/Santa Rosa, Sonoma Valley, 30X/Santa Rosa, Sonoma Valley, 32/Sonoma Valley, 34/Santa Rosa, Sonoma, 38/Sonoma Valley, San Rafael"
5556,757448,17,5th St W & W Napa,"30/Santa Rosa, Sonoma Valley, 30X/Santa Rosa, Sonoma Valley, 34/Santa Rosa, Sonoma, 38/Sonoma Valley, San Rafael"
5556,757457,18,Sonoma Plaza,"30/Santa Rosa, Sonoma Valley, 30X/Santa Rosa, Sonoma Valley, 32/Sonoma Valley, 34/Santa Rosa, Sonoma, 38/Sonoma Valley, San Rafael, 40/Sonoma, Petaluma, 53/East County Connector"
5557,757457,1,Sonoma Plaza,"30/Santa Rosa, Sonoma Valley, 30X/Santa Rosa, Sonoma Valley, 32/Sonoma Valley, 34/Santa Rosa, Sonoma, 38/Sonoma Valley, San Rafael, 40/Sonoma, Petaluma, 53/East County Connector"
5557,757469,2,5th St W & W Napa,"30/Santa Rosa, Sonoma Valley, 30X/Santa Rosa, Sonoma Valley, 34/Santa Rosa, Sonoma, 38/Sonoma Valley, San Rafael"
5557,757476,3,Bay St/Verano Ave (ac El Verano PO),"30/Santa Rosa, Sonoma Valley, 34/Santa Rosa, Sonoma, 38/Sonoma Valley, San Rafael"
5557,757489,4,Boyes Hot Springs (Sonoma Mission Inn),"30/Santa Rosa, Sonoma Valley, 30X/Santa Rosa, Sonoma Valley, 32/Sonoma Valley, 34/Santa Rosa, Sonoma, 38/Sonoma Valley, San Rafael"
5557,757497,5,Hanna Boys Center,"30/Santa Rosa, Sonoma Valley, 38/Sonoma Valley, San Rafael"
5557,757501,6,Sonoma Dev Center,"30/Santa Rosa, Sonoma Valley, 38/Sonoma Valley, San Rafael"
5557,757503,7,Glen Ellen (Arnold Dr & London Ranch Rd),"30/Santa Rosa, Sonoma Valley, 38/Sonoma Valley, San Rafael"
5557,757509,8,Kenwood (Hwy 12 & Greene St),"30/Santa Rosa, Sonoma Valley, 30X/Santa Rosa, Sonoma Valley, 34/Santa Rosa, Sonoma, 38/Sonoma Valley, San Rafael"
5557,757409,9,Los Guilicos,"30/Santa Rosa, Sonoma Valley"
5557,757516,10,Pythian Rd & Valley Oaks,"30/Santa Rosa, Sonoma Valley"
5557,757517,11,Oakmont Golf Course,"30/Santa Rosa, Sonoma Valley"
5557,757520,12,Oakmont Dr & White Oak,"30/Santa Rosa, Sonoma Valley"
5557,757527,13,St Francis Ctr (Hwy 12 & Calistoga Rd),"30/Santa Rosa, Sonoma Valley, 30X/Santa Rosa, Sonoma Valley, 34/Santa Rosa, Sonoma"
5557,757536,14,Montgomery Village,"30/Santa Rosa, Sonoma Valley, 30X/Santa Rosa, Sonoma Valley, 34/Santa Rosa, Sonoma"
5557,757538,15,Memorial Hospital,"30/Santa Rosa, Sonoma Valley, 30X/Santa Rosa, Sonoma Valley, 34/Santa Rosa, Sonoma"
5557,757068,16,Santa Rosa Transit Mall,"20/Russian River Area, Forestville, Sebastopol, Santa Rosa, 20X/Russian River Area, Santa Rosa, 22/Sebastopol, Santa Rosa, 29A/Santa Rosa - Sonoma Coast, 29B/Guerneville - Sonoma Coast, 30/Santa Rosa, Sonoma Valley, 30X/Santa Rosa, Sonoma Valley, 34/Santa Rosa, Sonoma, 42/Santa Rosa, Industry West Business Park, 44/Petaluma, JC, SSU, Santa Rosa, 44X/Santa Rosa, Rohnert Park, Petaluma, 46/Santa Rosa, Sonoma State University, Cotati Depot, 48/Santa Rosa, Rohnert Park, Cotati, Petaluma, 48X/Santa Rosa, Rohnert Park, Cotati, Petaluma, 54/South County Connector, 60/Cloverdale, Healdsburg, Windsor, Santa Rosa, 60X/Cloverdale, Healdsburg, Windsor, Santa Rosa, 62/Santa Rosa, County Airport"
5557,757074,17,Ac Santa Rosa Junior College,"20/Russian River Area, Forestville, Sebastopol, Santa Rosa, 20X/Russian River Area, Santa Rosa, 29A/Santa Rosa - Sonoma Coast, 30/Santa Rosa, Sonoma Valley, 30X/Santa Rosa, Sonoma Valley, 44/Petaluma, JC, SSU, Santa Rosa, 44X/Santa Rosa, Rohnert Park, Petaluma, 48/Santa Rosa, Rohnert Park, Cotati, Petaluma, 48X/Santa Rosa, Rohnert Park, Cotati, Petaluma, 54/South County Connector, 57/Kaiser, County Center, SRJC Shuttle, 60/Cloverdale, Healdsburg, Windsor, Santa Rosa, 60X/Cloverdale, Healdsburg, Windsor, Santa Rosa, 62/Santa Rosa, County Airport"
5557,757277,18,Coddingtown,"20/Russian River Area, Forestville, Sebastopol, Santa Rosa, 29A/Santa Rosa - Sonoma Coast, 30/Santa Rosa, Sonoma Valley, 30X/Santa Rosa, Sonoma Valley, 44/Petaluma, JC, SSU, Santa Rosa, 44X/Santa Rosa, Rohnert Park, Petaluma, 48/Santa Rosa, Rohnert Park, Cotati, Petaluma, 54/South County Connector"
5560,757717,1,Petaluma Transit Mall,"40/Sonoma, Petaluma, 44/Petaluma, JC, SSU, Santa Rosa, 44X/Santa Rosa, Rohnert Park, Petaluma, 48/Santa Rosa, Rohnert Park, Cotati, Petaluma, 48X/Santa Rosa, Rohnert Park, Cotati, Petaluma, 53/East County Connector, 54/South County Connector"
5560,757658,2,Petaluma Blvd & Mary (Downtown Petaluma),"48/Santa Rosa, Rohnert Park, Cotati, Petaluma, 48X/Santa Rosa, Rohnert Park, Cotati, Petaluma, 54/South County Connector"
5560,757664,3,Petaluma Blvd N & Stony Pt Rd,"48/Santa Rosa, Rohnert Park, Cotati, Petaluma, 48X/Santa Rosa, Rohnert Park, Cotati, Petaluma, 54/South County Connector"
5560,757722,4,N McDowell Blvd (Lucchesi Park),"44/Petaluma, JC, SSU, Santa Rosa"
5560,2329760,5,N McDowell Blvd & Southpoint,"44/Petaluma, JC, SSU, Santa Rosa"
5560,757668,6,Old Redwood Hwy & Petaluma Hill Rd,"30/Santa Rosa, Sonoma Valley, 44/Petaluma, JC, SSU, Santa Rosa, 48/Santa Rosa, Rohnert Park, Cotati, Petaluma, 48X/Santa Rosa, Rohnert Park, Cotati, Petaluma, 54/South County Connector"
5560,757676,7,Cotati Hub,"26/Sebastopol, Cotati, Rohnert Park, 48/Santa Rosa, Rohnert Park, Cotati, Petaluma, 48X/Santa Rosa, Rohnert Park, Cotati, Petaluma, 52/West County Connector, 54/South County Connector"
5560,757751,8,Sonoma State University,"10/Cotati, Rohnert Park, Sonoma State University, 26/Sebastopol, Cotati, Rohnert Park, 30/Santa Rosa, Sonoma Valley, 44/Petaluma, JC, SSU, Santa Rosa, 46/Santa Rosa, Sonoma State University, Cotati Depot, 52/West County Connector"
5560,757768,9,East Cotati Ave & Ryan Lane,"10T/Cotati, Rohnert Park Tripper, 26/Sebastopol, Cotati, Rohnert Park, 44/Petaluma, JC, SSU, Santa Rosa"
5560,757683,10,Adrian & Southwest,"10T/Cotati, Rohnert Park Tripper, 44/Petaluma, JC, SSU, Santa Rosa, 48/Santa Rosa, Rohnert Park, Cotati, Petaluma"
5560,757689,11,Commerce Blvd & RP Expressway,"10/Cotati, Rohnert Park, Sonoma State University, 10T/Cotati, Rohnert Park Tripper, 12/Northern Rohnert Park, 12T/Northern Rohnert Park Tripper, 14/Northern Rohnert Park, 14T/Northern Rohnert Park Tripper, 44/Petaluma, JC, SSU, Santa Rosa, 44X/Santa Rosa, Rohnert Park, Petaluma, 48/Santa Rosa, Rohnert Park, Cotati, Petaluma, 48X/Santa Rosa, Rohnert Park, Cotati, Petaluma, 54/South County Connector"
5560,757691,12,Redwood Dr & RP Expressway (Budget Inn),"44/Petaluma, JC, SSU, Santa Rosa, 44X/Santa Rosa, Rohnert Park, Petaluma, 48/Santa Rosa, Rohnert Park, Cotati, Petaluma"
5560,761115,13,Graton Resort (North Entrance),"12/Northern Rohnert Park, 44/Petaluma, JC, SSU, Santa Rosa, 48/Santa Rosa, Rohnert Park, Cotati, Petaluma"
5560,809086,14,Redwood Dr / Commerce Blvd (Taco Bell across from Chili's),"12/Northern Rohnert Park, 14/Northern Rohnert Park, 44/Petaluma, JC, SSU, Santa Rosa, 44X/Santa Rosa, Rohnert Park, Petaluma, 48/Santa Rosa, Rohnert Park, Cotati, Petaluma"
5560,757703,15,Santa Rosa Ave/ Todd Rd,"44/Petaluma, JC, SSU, Santa Rosa, 44X/Santa Rosa, Rohnert Park, Petaluma, 48/Santa Rosa, Rohnert Park, Cotati, Petaluma, 54/South County Connector"
5560,757068,16,Santa Rosa Transit Mall,"20/Russian River Area, Forestville, Sebastopol, Santa Rosa, 20X/Russian River Area, Santa Rosa, 22/Sebastopol, Santa Rosa, 29A/Santa Rosa - Sonoma Coast, 29B/Guerneville - Sonoma Coast, 30/Santa Rosa, Sonoma Valley, 30X/Santa Rosa, Sonoma Valley, 34/Santa Rosa, Sonoma, 42/Santa Rosa, Industry West Business Park, 44/Petaluma, JC, SSU, Santa Rosa, 44X/Santa Rosa, Rohnert Park, Petaluma, 46/Santa Rosa, Sonoma State University, Cotati Depot, 48/Santa Rosa, Rohnert Park, Cotati, Petaluma, 48X/Santa Rosa, Rohnert Park, Cotati, Petaluma, 54/South County Connector, 60/Cloverdale, Healdsburg, Windsor, Santa Rosa, 60X/Cloverdale, Healdsburg, Windsor, Santa Rosa, 62/Santa Rosa, County Airport"
5560,757074,17,Ac Santa Rosa Junior College,"20/Russian River Area, Forestville, Sebastopol, Santa Rosa, 20X/Russian River Area, Santa Rosa, 29A/Santa Rosa - Sonoma Coast, 30/Santa Rosa, Sonoma Valley, 30X/Santa Rosa, Sonoma Valley, 44/Petaluma, JC, SSU, Santa Rosa, 44X/Santa Rosa, Rohnert Park, Petaluma, 48/Santa Rosa, Rohnert Park, Cotati, Petaluma, 48X/Santa Rosa, Rohnert Park, Cotati, Petaluma, 54/South County Connector, 57/Kaiser, County Center, SRJC Shuttle, 60/Cloverdale, Healdsburg, Windsor, Santa Rosa, 60X/Cloverdale, Healdsburg, Windsor, Santa Rosa, 62/Santa Rosa, County Airport"
5560,757080,18,County Admin Center (Ventura Ave),"20/Russian River Area, Forestville, Sebastopol, Santa Rosa, 20X/Russian River Area, Santa Rosa, 30/Santa Rosa, Sonoma Valley, 30X/Santa Rosa, Sonoma Valley, 44/Petaluma, JC, SSU, Santa Rosa, 44X/Santa Rosa, Rohnert Park, Petaluma, 48/Santa Rosa, Rohnert Park, Cotati, Petaluma, 48X/Santa Rosa, Rohnert Park, Cotati, Petaluma, 54/South County Connector, 57/Kaiser, County Center, SRJC Shuttle, 60X/Cloverdale, Healdsburg, Windsor, Santa Rosa"
5560,757277,19,Coddingtown,"20/Russian River Area, Forestville, Sebastopol, Santa Rosa, 29A/Santa Rosa - Sonoma Coast, 30/Santa Rosa, Sonoma Valley, 30X/Santa Rosa, Sonoma Valley, 44/Petaluma, JC, SSU, Santa Rosa, 44X/Santa Rosa, Rohnert Park, Petaluma, 48/Santa Rosa, Rohnert Park, Cotati, Petaluma, 54/South County Connector"
5561,757277,1,Coddingtown,"20/Russian River Area, Forestville, Sebastopol, Santa Rosa, 29A/Santa Rosa - Sonoma Coast, 30/Santa Rosa, Sonoma Valley, 30X/Santa Rosa, Sonoma Valley, 44/Petaluma, JC, SSU, Santa Rosa, 44X/Santa Rosa, Rohnert Park, Petaluma, 48/Santa Rosa, Rohnert Park, Cotati, Petaluma, 54/South County Connector"
5561,757284,2,County Admin Center (Ventura Ave),"20/Russian River Area, Forestville, Sebastopol, Santa Rosa, 20X/Russian River Area, Santa Rosa, 30/Santa Rosa, Sonoma Valley, 30X/Santa Rosa, Sonoma Valley, 44/Petaluma, JC, SSU, Santa Rosa, 44X/Santa Rosa, Rohnert Park, Petaluma, 48/Santa Rosa, Rohnert Park, Cotati, Petaluma, 48X/Santa Rosa, Rohnert Park, Cotati, Petaluma, 54/South County Connector, 57/Kaiser, County Center, SRJC Shuttle, 60X/Cloverdale, Healdsburg, Windsor, Santa Rosa"
5561,757291,3,Santa Rosa Junior College,"20/Russian River Area, Forestville, Sebastopol, Santa Rosa, 20X/Russian River Area, Santa Rosa, 29A/Santa Rosa - Sonoma Coast, 30/Santa Rosa, Sonoma Valley, 30X/Santa Rosa, Sonoma Valley, 44/Petaluma, JC, SSU, Santa Rosa, 44X/Santa Rosa, Rohnert Park, Petaluma, 48/Santa Rosa, Rohnert Park, Cotati, Petaluma, 48X/Santa Rosa, Rohnert Park, Cotati, Petaluma, 54/South County Connector, 57/Kaiser, County Center, SRJC Shuttle, 60/Cloverdale, Healdsburg, Windsor, Santa Rosa, 60X/Cloverdale, Healdsburg, Windsor, Santa Rosa, 62/Santa Rosa, County Airport"
5561,757068,4,Santa Rosa Transit Mall,"20/Russian River Area, Forestville, Sebastopol, Santa Rosa, 20X/Russian River Area, Santa Rosa, 22/Sebastopol, Santa Rosa, 29A/Santa Rosa - Sonoma Coast, 29B/Guerneville - Sonoma Coast, 30/Santa Rosa, Sonoma Valley, 30X/Santa Rosa, Sonoma Valley, 34/Santa Rosa, Sonoma, 42/Santa Rosa, Industry West Business Park, 44/Petaluma, JC, SSU, Santa Rosa, 44X/Santa Rosa, Rohnert Park, Petaluma, 46/Santa Rosa, Sonoma State University, Cotati Depot, 48/Santa Rosa, Rohnert Park, Cotati, Petaluma, 48X/Santa Rosa, Rohnert Park, Cotati, Petaluma, 54/South County Connector, 60/Cloverdale, Healdsburg, Windsor, Santa Rosa, 60X/Cloverdale, Healdsburg, Windsor, Santa Rosa, 62/Santa Rosa, County Airport"
5561,757577,5,Santa Rosa Ave & Todd Rd,"44/Petaluma, JC, SSU, Santa Rosa, 44X/Santa Rosa, Rohnert Park, Petaluma, 48/Santa Rosa, Rohnert Park, Cotati, Petaluma, 54/South County Connector"
5561,757581,6,Robert's Lake Rd / Golf Course Dr,"44/Petaluma, JC, SSU, Santa Rosa, 44X/Santa Rosa, Rohnert Park, Petaluma, 48/Santa Rosa, Rohnert Park, Cotati, Petaluma, 54/South County Connector"
5561,757583,7,Redwood Dr & Commerce Blvd,"12/Northern Rohnert Park, 14/Northern Rohnert Park, 44/Petaluma, JC, SSU, Santa Rosa, 44X/Santa Rosa, Rohnert Park, Petaluma, 48/Santa Rosa, Rohnert Park, Cotati, Petaluma"
5561,761115,8,Graton Resort (North Entrance),"12/Northern Rohnert Park, 44/Petaluma, JC, SSU, Santa Rosa, 48/Santa Rosa, Rohnert Park, Cotati, Petaluma"
5561,757591,9,Redwood Dr & RP Expressway (Mattress Firm),"12/Northern Rohnert Park, 14/Northern Rohnert Park, 44/Petaluma, JC, SSU, Santa Rosa, 44X/Santa Rosa, Rohnert Park, Petaluma, 48/Santa Rosa, Rohnert Park, Cotati, Petaluma"
5561,757596,10,Commerce Blvd & RP Expressway,"44/Petaluma, JC, SSU, Santa Rosa, 44X/Santa Rosa, Rohnert Park, Petaluma, 48/Santa Rosa, Rohnert Park, Cotati, Petaluma, 48X/Santa Rosa, Rohnert Park, Cotati, Petaluma, 54/South County Connector"
5561,757600,11,Adrian Dr & Southwest Blvd,"10T/Cotati, Rohnert Park Tripper, 44/Petaluma, JC, SSU, Santa Rosa, 48/Santa Rosa, Rohnert Park, Cotati, Petaluma"
5561,785279,12,East Cotati Ave & Santero Way,"10/Cotati, Rohnert Park, Sonoma State University, 10T/Cotati, Rohnert Park Tripper, 26/Sebastopol, Cotati, Rohnert Park, 44/Petaluma, JC, SSU, Santa Rosa, 46/Santa Rosa, Sonoma State University, Cotati Depot, 52/West County Connector"
5561,757607,13,Cotati Hub,"10/Cotati, Rohnert Park, Sonoma State University, 10T/Cotati, Rohnert Park Tripper, 26/Sebastopol, Cotati, Rohnert Park, 48/Santa Rosa, Rohnert Park, Cotati, Petaluma, 48X/Santa Rosa, Rohnert Park, Cotati, Petaluma, 52/West County Connector, 54/South County Connector"
5561,757615,14,Old Redwood Hwy & Petaluma Hill Rd,"30/Santa Rosa, Sonoma Valley, 44/Petaluma, JC, SSU, Santa Rosa, 48/Santa Rosa, Rohnert Park, Cotati, Petaluma, 48X/Santa Rosa, Rohnert Park, Cotati, Petaluma, 54/South County Connector"
5561,848650,15,Sonoma State University - NB,"44/Petaluma, JC, SSU, Santa Rosa, 46/Santa Rosa, Sonoma State University, Cotati Depot"
5561,757619,16,Petaluma Blvd N & Stony Pt Rd,"48/Santa Rosa, Rohnert Park, Cotati, Petaluma, 48X/Santa Rosa, Rohnert Park, Cotati, Petaluma, 54/South County Connector"
5561,757627,17,Washington & Petaluma Blvd (Downtown Petaluma),"48/Santa Rosa, Rohnert Park, Cotati, Petaluma, 48X/Santa Rosa, Rohnert Park, Cotati, Petaluma, 54/South County Connector"
5561,757641,18,Petaluma Estates MHP,"44/Petaluma, JC, SSU, Santa Rosa"
5561,757653,19,N McDowell Blvd (Petaluma Plaza),"44/Petaluma, JC, SSU, Santa Rosa"
5561,757717,20,Petaluma Transit Mall,"40/Sonoma, Petaluma, 44/Petaluma, JC, SSU, Santa Rosa, 44X/Santa Rosa, Rohnert Park, Petaluma, 48/Santa Rosa, Rohnert Park, Cotati, Petaluma, 48X/Santa Rosa, Rohnert Park, Cotati, Petaluma, 53/East County Connector, 54/South County Connector"
5562,758010,1,Windsor Depot (Emily Rose Circle),66/Windsor Shuttle
5562,758012,2,Windsor Rd & Plant Rd - Windsor HS,"55/Airport Business Park Shuttle, 62/Santa Rosa, County Airport, 66/Windsor Shuttle"
5562,4160894,3,Oak Park St @ Windsor River Rd,66/Windsor Shuttle
5562,758016,4,Windsor Rd & Mitchell Ln,66/Windsor Shuttle
5562,758021,5,Conde Ln (Windsor MHP),66/Windsor Shuttle
5562,757112,6,Shiloh Center & Wal-Mart (Hembree),"60/Cloverdale, Healdsburg, Windsor, Santa Rosa, 66/Windsor Shuttle"
5562,758026,7,Hembree Ln & Old Redwood Hwy,66/Windsor Shuttle
5562,758027,8,Hembree Ln & (driveway),66/Windsor Shuttle
5562,758033,9,Foothill Regional Park,66/Windsor Shuttle
5562,758037,10,Brooks Rd & Foothill Dr,66/Windsor Shuttle
5562,758038,11,Brooks Rd & Glen Miller Dr (Lakewood Village),66/Windsor Shuttle
5562,758039,12,Raley's Shopping Center,66/Windsor Shuttle
5562,758045,13,Arata Ln & Old Redwood Hwy,66/Windsor Shuttle
5562,758010,14,Windsor Depot (Emily Rose Circle),66/Windsor Shuttle
5563,810950,1,Cloverdale Blvd & Treadway Blvd (Ray's Market),68/Cloverdale Shuttle
5563,810174,2,Brookside Dr & Cloverdale Blvd,68/Cloverdale Shuttle
5563,810175,3,Blair St & Clark Ave,68/Cloverdale Shuttle
5563,810176,4,South St & Cloverdale Blvd,68/Cloverdale Shuttle
5563,757168,5,Cloverdale City Hall & Plaza,"60/Cloverdale, Healdsburg, Windsor, Santa Rosa, 60X/Cloverdale, Healdsburg, Windsor, Santa Rosa, 68/Cloverdale Shuttle"
5563,810163,6,North Main St & Fourth St,68/Cloverdale Shuttle
5563,757169,7,Kings Valley - Clubhouse,68/Cloverdale Shuttle
5563,810165,8,Cloverdale Blvd & School St,68/Cloverdale Shuttle
5563,810166,9,Champlain Ave & Cloverdale Blvd,68/Cloverdale Shuttle
5563,810168,10,Jefferson St & School St,68/Cloverdale Shuttle
5563,810949,11,Jefferson St & W First St,68/Cloverdale Shuttle
5563,757170,12,Cloverdale Blvd & Healdsburg Ave,"60/Cloverdale, Healdsburg, Windsor, Santa Rosa, 68/Cloverdale Shuttle"
5563,810171,13,Cherry Creek Rd & Cloverdale Blvd,68/Cloverdale Shuttle
5563,2335912,14,Treadway Blvd & Cloverdale Blvd,68/Cloverdale Shuttle
5563,824783,15,Cloverdale Blvd & Treadway Blvd (CVS Store),68/Cloverdale Shuttle
5563,810950,16,Cloverdale Blvd & Treadway Blvd (Ray's Market),68/Cloverdale Shuttle
5564,921,1,Safeway,67/Healdsburg Shuttle
5564,757140,2,Healdsburg Plaza,"60/Cloverdale, Healdsburg, Windsor, Santa Rosa, 60X/Cloverdale, Healdsburg, Windsor, Santa Rosa, 67/Healdsburg Shuttle"
5564,948,3,CVS (Piper St),67/Healdsburg Shuttle
5564,936,4,Across from Rite Aid,67/Healdsburg Shuttle
5564,757144,5,Grove St & Chaquita Rd,"60/Cloverdale, Healdsburg, Windsor, Santa Rosa, 67/Healdsburg Shuttle"
5564,940,6,Parkland Farms,67/Healdsburg Shuttle
5564,943,7,March Ave & Healdsburg Ave,67/Healdsburg Shuttle
5564,945,8,Alliance Medical Center,67/Healdsburg Shuttle
5564,948,9,CVS (Piper St),67/Healdsburg Shuttle
5564,933,10,Senior Center,67/Healdsburg Shuttle
5564,921,11,Safeway,67/Healdsburg Shuttle
5565,921,1,Safeway,67/Healdsburg Shuttle
5565,925,2,Catholic Church (Matheson St),67/Healdsburg Shuttle
5565,926,3,Fitch Mountain Terrace,67/Healdsburg Shuttle
5565,928,4,Riverview Club House,67/Healdsburg Shuttle
5565,929,5,Riverside Club House,67/Healdsburg Shuttle
5565,930,6,Rivers Bend Club House,67/Healdsburg Shuttle
5565,924,7,Russian River Pines Apartments,67/Healdsburg Shuttle
5565,923,8,Russian River Trailer Park,67/Healdsburg Shuttle
5565,757138,9,Healdsburg Ave & Exchange Way,"60/Cloverdale, Healdsburg, Windsor, Santa Rosa, 60X/Cloverdale, Healdsburg, Windsor, Santa Rosa, 67/Healdsburg Shuttle"
5565,933,10,Senior Center,67/Healdsburg Shuttle
5565,921,11,Safeway,67/Healdsburg Shuttle
