stop_id,stop_code,platform_code,stop_name,stop_desc,stop_lat,stop_lon,zone_id,stop_url,location_type,parent_station,stop_timezone,position,direction,wheelchair_boarding,tts_stop_name
4208717,,,1000 Gateway Blvd.,,37.661125,-122.395746,,https://commute.org/shuttles/,0,,America/Los_Angeles,,,1,
4208718,,,701 Gateway Blvd.,,37.659022,-122.397426,,https://commute.org/shuttles/,0,,America/Los_Angeles,,,1,
4208719,,,201 Haskins Way,,37.649947,-122.387205,,https://commute.org/shuttles/,0,,America/Los_Angeles,,,1,
4208720,3642700,,352 Oyster Point,,37.6622477761076,-122.384202826153,,https://commute.org/shuttles/,0,,America/Los_Angeles,,,1,
4208767,,,110 Constitution,,37.484964,-122.177721,,https://www.smctd.com/shuttles,0,,America/Los_Angeles,,,0,
4208833,3245068,,W. Hillsdale/31st Avenue (PM Stop),,37.5324183129059,-122.323924429953,,,0,,America/Los_Angeles,,,0,
4208834,3245354,,W. Hillsdale/Alameda de las Pulgas (PM Stop),,37.5319722993126,-122.308093599428,,,0,,America/Los_Angeles,,,0,
4208835,3245067,,W. Hillsdale/Del Monte Street (PM Stop),,37.5299966087215,-122.314146618189,,,0,,America/Los_Angeles,,,0,
4208836,3642696,,Oyster Point Blvd / Gateway,,37.6622346591498,-122.394786315961,,,0,,America/Los_Angeles,,,0,
4208837,3245066,,Laurelwood Shopping Ctr (PM Stop),,37.534323,-122.328252,,,0,,America/Los_Angeles,,,0,
4208838,,,322 Airport Blvd. (BUR 102),,37.5898586423935,-122.336246498966,,,0,,America/Los_Angeles,,,0,
4208839,3647464,,Tunnel & Blanken,,37.7119584902193,-122.400815383496,,,0,,America/Los_Angeles,,,0,
4208840,3643655,,213 E. Grand Ave. (PM Only),,37.6547126516075,-122.398673799024,,,0,,America/Los_Angeles,,,0,
4208841,3643654,,269 E. Grand Ave. (PM Only),,37.6537615454449,-122.395337238711,,,0,,America/Los_Angeles,,,0,
4208842,3643653,,380 Littlefield Ave. (PM Only),,37.6485592183795,-122.39436823451,,,0,,America/Los_Angeles,,,0,
4208843,3241537,,Old County / Bayshore,,37.6851221361531,-122.399457712197,,,0,,America/Los_Angeles,,,0,
4208844,3251049,,Mariners' Island & Fashion Island,,37.5583608442253,-122.287402522604,,,0,,America/Los_Angeles,,,0,
4208845,3245056,,San Mateo Medical Center,,37.5305429434033,-122.300707599335,,,0,,America/Los_Angeles,,,0,
4208846,3789576,,Barron Ave & Broadway @ Discovery Hall,,37.48473,-122.20233,,,0,,America/Los_Angeles,,,0,
4208847,3652492,,Belmont Caltrain Station,,37.5219974655926,-122.277768198526,,,0,,America/Los_Angeles,,,0,
4208848,340007,,Broadway Caltrain Station,,37.587122756078834,-122.3620831779117,,https://commute.org/shuttles/,0,,America/Los_Angeles,,,1,
4208865,3789575,,505 Broadway @ Cardinal Hall,,37.48516,-122.20447,,,0,,America/Los_Angeles,,,0,
4208866,3242009,,155 South Hill,,37.6893417689611,-122.418164907161,,,0,,America/Los_Angeles,,,0,
4208867,3245355,,Alameda de las Pulgas/20th Ave. (PM Stop),,37.5452414004008,-122.320590115465,,,0,,America/Los_Angeles,,,0,
4208868,3643000,,"South San Francisco BART (UGB/OTP, Bay #6)",,37.664499,-122.444035,,,0,,America/Los_Angeles,,,0,
4208869,3244682,,Millbrae Intermodal Station (West),,37.599459,-122.386523,,,0,,America/Los_Angeles,,,0,
4208870,3645056,,Mills-Peninsula Health Services,,37.592945,-122.382999,,,0,,America/Los_Angeles,,,0,
4208871,3645057,,Adeline & Balboa,,37.588308,-122.375726,,,0,,America/Los_Angeles,,,0,
4208872,3645058,,Adeline & Bernal,,37.585655,-122.378081,,,0,,America/Los_Angeles,,,0,
4208873,3645059,,Sisters of Mercy,,37.5836686126163,-122.382690781822,,,0,,America/Los_Angeles,,,0,
4208874,3645060,,Adeline & Bernal,,37.585742,-122.377886,,,0,,America/Los_Angeles,,,0,
4208875,3645061,,Adeline & Balboa,,37.588313,-122.375625,,,0,,America/Los_Angeles,,,0,
4208876,3251041,,Hillsdale Caltrain Station,,37.543438,-122.302258,,,0,,America/Los_Angeles,,,0,
4208878,3251771,,1800-1820 Gateway,,37.557117,-122.281137,,,0,,America/Los_Angeles,,,0,
4208879,3251772,,Shell & E. Hillsdale Blvd.,,37.559062,-122.271998,,,0,,America/Los_Angeles,,,0,
4208880,3251773,,The Plaza at Triton Park,,37.565127,-122.269464,,,0,,America/Los_Angeles,,,0,
4208881,3251775,,393 Vintage Park Dr (AM Only),,37.562802,-122.277273,,https://commute.org/shuttles/,0,,America/Los_Angeles,,,1,
4208882,3251776,,951 Mariners' Island,,37.559524,-122.287312,,,0,,America/Los_Angeles,,,0,
4208883,3251774,,One Hundred Grand,,37.563387,-122.269187,,,0,,America/Los_Angeles,,,0,
4208884,3249689,,Balboa Park BART (Geneva/Delano),,37.720178,-122.44545,,,0,,America/Los_Angeles,,,0,
4208885,3241997,,Bayshore & Geneva,,37.703865,-122.407589,,,0,,America/Los_Angeles,,,0,
4208886,3241998,,Bayshore & Guadalupe,,37.691922,-122.404486,,,0,,America/Los_Angeles,,,0,
4208887,3241538,,Old County / San Francisco (USPS Office),,37.684877,-122.402397,,,0,,America/Los_Angeles,,,0,
4208888,3242012,,San Bruno / Mendocino,,37.682722,-122.400653,,,0,,America/Los_Angeles,,,0,
4208889,3242013,,San Bruno / Alvarado,,37.681405,-122.399556,,,0,,America/Los_Angeles,,,0,
4208890,3242014,,San Bruno / Glen Park Way,,37.679899,-122.398425,,,0,,America/Los_Angeles,,,0,
4208891,3242015,,3745 Bayshore,,37.680277,-122.394184,,,0,,America/Los_Angeles,,,0,
4208892,3242016,,Bayshore & Tunnel,,37.685249,-122.397677,,,0,,America/Los_Angeles,,,0,
4208893,3241999,,140 Valley,,37.687382,-122.402643,,,0,,America/Los_Angeles,,,0,
4208894,3242000,,240 Valley,,37.688167,-122.404711,,,0,,America/Los_Angeles,,,0,
4208895,3242001,,380 Valley,,37.688322,-122.410424,,,0,,America/Los_Angeles,,,0,
4208896,3242002,,422 Valley,,37.688674,-122.411898,,,0,,America/Los_Angeles,,,0,
4208897,3242004,,460 Valley,,37.690987,-122.416375,,,0,,America/Los_Angeles,,,0,
4208898,3242005,,480 Valley,,37.691868,-122.419329,,,0,,America/Los_Angeles,,,0,
4208899,3242006,,W. Hill Dr. & W. Hill PL,,37.692651,-122.422206,,,0,,America/Los_Angeles,,,0,
4208900,3242007,,150 West Hill Pl.,,37.692826,-122.424046,,,0,,America/Los_Angeles,,,0,
4208901,3242008,,175 South Hill,,37.689685,-122.419353,,,0,,America/Los_Angeles,,,0,
4208902,3242011,,99 South Hill,,37.687473,-122.413845,,,0,,America/Los_Angeles,,,0,
4208903,3242010,,101 South Hill,,37.688041,-122.414862,,https://commute.org/shuttles/,0,,America/Los_Angeles,,,0,
4208904,3647463,,Tunnel & Recycle (Bayshore Caltrain),,37.708505,-122.401267,,https://commute.org/shuttles/,0,,America/Los_Angeles,,,1,
4208905,3242017,,Bayshore & Guadalupe,,37.692994,-122.404726,,,0,,America/Los_Angeles,,,0,
4208906,3242019,,Bayshore & Visitacion,,37.71068,-122.40385,,,0,,America/Los_Angeles,,,0,
4208907,3241536,,Bayshore Caltrain Station,,37.708751,-122.401522,,,0,,America/Los_Angeles,,,0,
4208908,3241996,,Bayshore & Leland,,37.711105,-122.403888,,,0,,America/Los_Angeles,,,0,
4208909,3242020,,Bayshore & Blanken,,37.712267,-122.401637,,,0,,America/Los_Angeles,,,0,
4208910,3643001,,"South San Francisco BART (OPB, Bay #1)",,37.663636,-122.443379,,,0,,America/Los_Angeles,,,0,
4208911,3642689,,The Cove,,37.6632245892616,-122.394498373912,,,0,,America/Los_Angeles,,,0,
4208912,3642690,,1120 Veterans Blvd.,,37.663442,-122.392067,,https://commute.org/shuttles/,0,,America/Los_Angeles,,,0,
4208913,3642691,,220 Oyster Point,,37.662057,-122.391495,,,0,,America/Los_Angeles,,,0,
4208914,3642692,,200 Oyster Point,,37.661646,-122.392794,,,0,,America/Los_Angeles,,,0,
4208915,3642693,,Oyster Point Blvd / Eccles (EB),,37.6624547326221,-122.388582017706,,https://commute.org/shuttles/,0,,America/Los_Angeles,,,0,
4208916,3642694,,384 Oyster Point,,37.664657,-122.384298,,,0,,America/Los_Angeles,,,0,
4208917,3642695,,Cul-de-Sac (395/400 Oyster Point Blvd),,37.666527,-122.383355,,,0,,America/Los_Angeles,,,0,
4208918,3642698,,Eccles / Rozzi,,37.659299,-122.391768,,https://commute.org/shuttles/,0,,America/Los_Angeles,,,1,
4208920,3643194,,South San Francisco Ferry Terminal,,37.662593,-122.377369,,,0,,America/Los_Angeles,,,0,
4208921,3643642,,169 Harbor Way (AM Only),,37.652801,-122.399738,,,0,,America/Los_Angeles,,,0,
4208922,3643643,,230 E. Grand Ave. (AM Only),,37.653748,-122.396198,,,0,,America/Los_Angeles,,,0,
4208923,3643644,,Kimball & E. Grand Ave.,,37.651039,-122.391858,,,0,,America/Los_Angeles,,,0,
4208924,3643645,,390 Swift Ave.,,37.650312,-122.387406,,,0,,America/Los_Angeles,,,0,
4208925,3870773,,475 E. Grand Ave.,,37.6514,-122.381571,,,0,,America/Los_Angeles,,,0,
4208926,3643648,,Cabot/Allerton Ave.,,37.653918,-122.390147,,,0,,America/Los_Angeles,,,0,
4208927,3643649,,349 Littlefield Ave. (AM Only),,37.648826,-122.394487,,,0,,America/Los_Angeles,,,0,
4208928,3643652,,SSF Conference Center,,37.647449010601,-122.404745483627,,,0,,America/Los_Angeles,,,0,
4208929,3643646,,400/450 E. Jamie Court,,37.648813,-122.385549,,,0,,America/Los_Angeles,,,0,
4208930,3642688,,South San Francisco Caltrain,,37.6548555053072,-122.405586517732,,,0,,America/Los_Angeles,,,0,
4208931,3652604,,One Tower Place,,37.6662825093014,-122.397867965623,,,0,,America/Los_Angeles,,,0,
4208933,3243101,,Millbrae Intermodal Station (East),,37.6007677502047,-122.386194512326,,,0,,America/Los_Angeles,,,1,
4208934,3243102,,1649 Adrian Road,,37.597791,-122.373997,,,0,,America/Los_Angeles,,,0,
4208935,3243410,,David/Rollins,,37.593502,-122.371025,,,0,,America/Los_Angeles,,,0,
4208936,3243103,,1600 Rollins Road,,37.594848,-122.373831,,,0,,America/Los_Angeles,,,0,
4208937,3243104,,Rollins/Guittard,,37.597585,-122.379085,,,0,,America/Los_Angeles,,,0,
4208938,3243105,,1799 Old Bayshore Hwy (AM Only),,37.602445,-122.372023,,,0,,America/Los_Angeles,,,0,
4208939,3243100,,Bayshore/Hinckley,,37.599087,-122.367308,,,0,,America/Los_Angeles,,,0,
4208940,3243107,,1333 Bayshore Hwy (AM Only),,37.593987,-122.364416,,,0,,America/Los_Angeles,,,0,
4208942,3243109,,Airport/Bayview,,37.590338,-122.340783,,,0,,America/Los_Angeles,,,0,
4208943,3243110,,600 Airport Blvd.,,37.589505,-122.343423,,,0,,America/Los_Angeles,,,0,
4208944,3243111,,700 Airport Blvd.,,37.589736,-122.347419,,,0,,America/Los_Angeles,,,0,
4208945,3243406,,800 Airport Blvd.,,37.590835,-122.349967,,,0,,America/Los_Angeles,,,0,
4208946,3243407,,1350 Bayshore Hwy (PM Only),,37.594566,-122.364427,,,0,,America/Los_Angeles,,,0,
4208947,3243106,,1600 Bayshore Hwy (PM Only),,37.599606,-122.367557,,,0,,America/Los_Angeles,,,0,
4208948,3243409,,1800 Old Bayshore Hwy (PM),,37.602868,-122.372428,,,0,,America/Los_Angeles,,,0,
4208951,3245060,,Alameda de las Pulgas/20th Ave. (AM Stop),,37.5458310151113,-122.320993317021,,,0,,America/Los_Angeles,,,0,
4208952,3245061,,Laurelwood Shopping Ctr (AM Stop),,37.533712,-122.327611,,,0,,America/Los_Angeles,,,0,
4208953,3245062,,Peninsula Office Park  (Top),,37.536539,-122.327282,,,0,,America/Los_Angeles,,,0,
4208954,3245063,,Peninsula Office Park  (End of Cul-De-Sac),,37.536602,-122.323631,,,0,,America/Los_Angeles,,,0,
4208955,3245064,,W. Hillsdale/31st Avenue (AM Stop),,37.532159,-122.323641,,,0,,America/Los_Angeles,,,0,
4208956,3245065,,W. Hillsdale/Del Monte Street (AM Stop),,37.529915,-122.314093,,,0,,America/Los_Angeles,,,0,
4208957,3245353,,W. Hillsdale/Alameda de las Pulgas (AM Stop),,37.531729,-122.308356,,,0,,America/Los_Angeles,,,0,
4208959,3245475,,W. Hillsdale/Glendora Dr. (AM Only),,37.532937,-122.326754,,,0,,America/Los_Angeles,,,0,
4208966,3255007,,1700 S. Amphlett Blvd,,37.558619,-122.302016,,https://commute.org/shuttles/,0,,America/Los_Angeles,,,1,
4208968,3251043,,777 Mariners Island,,37.561365,-122.287574,,,0,,America/Los_Angeles,,,0,
4208969,3251045,,353 Lakeside,,37.565865,-122.282158,,,0,,America/Los_Angeles,,,0,
4208970,3251044,,300-310 Lakeside,,37.569693,-122.283332,,,0,,America/Los_Angeles,,,0,
4208971,3251046,,303 Velocity Way,,37.5695076892782,-122.280372042247,,,0,,America/Los_Angeles,,,0,
4208972,3645351,,200 Lincoln Centre,,37.569408,-122.269319,,,0,,America/Los_Angeles,,,0,
4208973,3251048,,E. 3rd Ave. & Lincoln Centre,,37.570849,-122.269471,,,0,,America/Los_Angeles,,,0,
4208974,3645349,,1163 Chess Drive,,37.566256,-122.272492,,,0,,America/Los_Angeles,,,0,
4208975,3645350,,1111-1133 Chess Drive,,37.567963,-122.274533,,https://commute.org/shuttles/,0,,America/Los_Angeles,,,0,
4208976,3251047,,4000/4100 E. 3rd Ave.,,37.571342,-122.266308,,,0,,America/Los_Angeles,,,0,
4208977,3645352,,Bridgepointe Circle & Bridgepointe Pkwy (AM Only),,37.563141,-122.281625,,https://commute.org/shuttles/,0,,America/Los_Angeles,,,0,
4208978,3789574,,Broadway & Douglas,,37.4858978748911,-122.207324565848,,,0,,America/Los_Angeles,,,0,
4208979,3255546,,Redwood City Caltrain Station,,37.485618,-122.230864,,,0,,America/Los_Angeles,,,0,
4208980,3643359,,Chesapeake,,37.500102,-122.213843,,,0,,America/Los_Angeles,,,0,
4208981,3643360,,100 Cardinal Way,,37.504172,-122.219867,,https://commute.org/shuttles/,0,,America/Los_Angeles,,,0,
4208982,3643361,,Saginaw (Cul-de-Sac),,37.5015878098124,-122.218415087623,,,0,,America/Los_Angeles,,,0,
4208983,3643362,,Galveston,,37.499002,-122.217297,,,0,,America/Los_Angeles,,,0,
4208984,3242018,,Bayshore Blvd & Geneva,,37.705121,-122.406595,,,0,,America/Los_Angeles,,,0,
4208985,3652493,,800 Bridge Pkwy.,,37.533191,-122.25896,,,0,,America/Los_Angeles,,,0,
4208986,3652494,,Bridge Pkwy. & Island Drive,,37.535687,-122.258968,,,0,,America/Los_Angeles,,,0,
4208987,3652495,,1600-1800 Bridge Pkwy,,37.536911,-122.258572,,,0,,America/Los_Angeles,,,0,
4208988,3652496,,2800-3000 Bridge Pkwy.,,37.53976,-122.256417,,,0,,America/Los_Angeles,,,0,
4208989,3652497,,3400-3600 Bridge Pkwy.,,37.537912,-122.254596,,,0,,America/Los_Angeles,,,0,
4208994,3242003,,440 Valley,,37.690099,-122.414095,,,0,,America/Los_Angeles,,,0,
4208995,3643358,,Maple & Blomquist,,37.493465,-122.219467,,https://commute.org/shuttles/,0,,America/Los_Angeles,,,1,
4208996,3255006,,400 Concar Dr,,37.5533007645282,-122.30772686413799,,https://commute.org/shuttles/,0,,America/Los_Angeles,,,1,
4208998,3255004,,800/900 Concar Dr,,37.5552070352687,-122.299746736063,,https://commute.org/shuttles/,0,,America/Los_Angeles,,,1,
4209053,,,Oyster Point Blvd / Veterans Blvd (WB),,37.6625244160501,-122.392828950014,,https://commute.org/shuttles/,0,,America/Los_Angeles,,,1,
4209054,,,499 Forbes Blvd.,,37.65722895889526,-122.38869630766953,,https://commute.org/shuttles/,0,,America/Los_Angeles,,,1,
4209055,,,Marine Pkwy / Boardwalk Pl,,37.5364027804649,-122.25111170075724,,https://commute.org/shuttles/,0,,America/Los_Angeles,,,1,
4209056,,,Marine Pkwy / Sandpiper Ln,,37.53258957838406,-122.2570729016907,,https://commute.org/shuttles/,0,,America/Los_Angeles,,,1,
4209057,,,Marine Pkwy / Twin Dolphin (AM Only),,37.52848420931855,-122.26343713338265,,https://commute.org/shuttles/,0,,America/Los_Angeles,,,1,
4209058,,,Marine Pkwy / Oracle Pkwy (PM Stop),,37.52882264716398,-122.26185999420586,,https://commute.org/shuttles/,0,,America/Los_Angeles,,,1,
4209064,,,E. 3rd Ave & S. Norfolk (SE Corner),,37.5736342467807,-122.310437159213,,https://commute.org/shuttles/,0,,America/Los_Angeles,,,1,
4209065,,,E. 3rd Ave & S. Norfolk (NE Corner),,37.573400571722,-122.311263566275,,https://commute.org/shuttles/,0,,America/Los_Angeles,,,1,
4209066,,,Oyster Point Blvd / Veterans Blvd (EB),,37.662288559991,-122.393222525794,,https://commute.org/shuttles/,0,,America/Los_Angeles,,,1,
4209067,,,Oyster Point Blvd / Eccles (WB),,37.6626414624959,-122.389078266977,,https://commute.org/shuttles/,0,,America/Los_Angeles,,,1,
4209073,,,20th Ave & Alameda de las Pulgas,,37.54563385989218,-122.3205518151189,,https://commute.org/shuttles/,0,,America/Los_Angeles,,,1,
4209074,341620,,256 37th Ave (San Mateo Medical Ctr),,37.531833683225,-122.300725467905,,https://commute.org/shuttles/,0,,America/Los_Angeles,,,1,
4209721,,,California Dr & Broadway (PM Only),,37.587276286600314,-122.36296876499924,,https://commute.org/shuttles/,0,,America/Los_Angeles,,,1,
4209722,,,Saratoga Dr & Park Pl,,37.54465492829061,-122.29296260827351,,https://commute.org/shuttles/,0,,America/Los_Angeles,,,1,
4209723,,,Alameda de las Pulgas & Portola Dr,,37.53947433344911,-122.31318590411374,,https://commute.org/shuttles/,0,,America/Los_Angeles,,,1,
4209772,,,Seton Medical Center (1900 Sullivan),,37.67915291599387,-122.47460279079077,,https://commute.org/shuttles/,0,,America/Los_Angeles,,,1,
4209773,,,Seton Medical Office Center (1800-1850 Sullivan),,37.68109028152797,-122.47428054845109,,https://commute.org/shuttles/,0,,America/Los_Angeles,,,1,
4209776,,,Daly City BART Station,,37.70643854854775,-122.46917146447115,,https://commute.org/shuttles/,0,,America/Los_Angeles,,,1,
4209777,,,Sullivan & 91st St,,37.69028764605194,-122.4721474132201,,https://commute.org/shuttles/,0,,America/Los_Angeles,,,1,
4210101,,,Menlo Park Caltrain (Crosstown Shuttle Stop),,37.454095,-122.182474,,https://www.smctd.com/shuttles,0,,America/Los_Angeles,,,1,
4210102,,,Ravenswood Ave & Pine St,,37.4562111613095,-122.178682045716,,,0,,America/Los_Angeles,,,1,
4210103,,,Santa Cruz & Curtis,,37.452474,-122.18393,,https://smctd.com/shuttles,0,,America/Los_Angeles,,,1,
4210104,,,Alameda de las Pulgas & Santa Cruz Ave,,37.4285832772586,-122.195830619777,,,0,,America/Los_Angeles,,,1,
4210105,,,Alameda de las Pulgas & Sharon Rd,,37.4305032439677,-122.199268858507,,,0,,America/Los_Angeles,,,0,
4210106,,,Alameda de las Pulgas & Avy Ave,,37.4315912342929,-122.201323750049,,,0,,America/Los_Angeles,,,1,
4210107,,,Avy Ave & Altschul Ave,,37.4297758221428,-122.203070591995,,,0,,America/Los_Angeles,,,1,
4210108,,,Avy Ave & Monte Rosa Dr,,37.4279866676363,-122.205298781834,,,0,,America/Los_Angeles,,,1,
4210109,,,Monte Rosa Dr & Eastridge Ave,,37.4255854393633,-122.200735043098,,,0,,America/Los_Angeles,,,1,
4210110,,,Welch Rd @ Lucile Packard Children's Hospital,,37.4371624428282,-122.174521648225,,,0,,America/Los_Angeles,,,1,
4210111,,,Welch Rd @ Lucile Packard Children's Hospital,,37.4371947851104,-122.17373693831,,,0,,America/Los_Angeles,,,1,
4210112,,,University Dr & Middle Ave,,37.4463271627212,-122.180441127271,,,0,,America/Los_Angeles,,,0,
4210113,,,University Dr & Middle Ave,,37.446233739402,-122.180518400719,,,0,,America/Los_Angeles,,,0,
4210114,,,Santa Cruz & Doyle,,37.453017,-122.183297,,https://smctd.com/shuttles,0,,America/Los_Angeles,,,1,
4210115,,,Santa Cruz & Evelyn,,37.450251,-122.185587,,https://smctd.com/shuttles,0,,America/Los_Angeles,,,1,
4210116,,,Glenwood Ave & El Camino Real,,37.4562322592821,-122.187111682467,,,0,,America/Los_Angeles,,,1,
4210117,,,Glenwood Ave & El Camino Real,,37.4563880601337,-122.18721174061,,,0,,America/Los_Angeles,,,1,
4210118,,,Glenwood Ave & Mills Ct,,37.4580989538825,-122.18562881188,,,0,,America/Los_Angeles,,,1,
4210119,,,Glenwood Ave & Mills Ct,,37.4581138730061,-122.185845981691,,,0,,America/Los_Angeles,,,1,
4210120,,,Ravenswood Ave & Pine St,,37.4564221925715,-122.178243682413,,,0,,America/Los_Angeles,,,1,
4210121,,,Willow Rd & Alma St,,37.4495509230222,-122.172572555514,,,0,,America/Los_Angeles,,,1,
4210122,,,Willow Rd & Alma St,,37.4495356975128,-122.172852345919,,,0,,America/Los_Angeles,,,1,
4210123,,,Linfield Dr & Laurel St,,37.4516877142654,-122.171044508239,,,0,,America/Los_Angeles,,,1,
4210124,,,Linfield Dr & Laurel St,,37.4517018165594,-122.171187282769,,,0,,America/Los_Angeles,,,1,
4210125,,,Willow Rd & Nash Ave,,37.458812309031,-122.161766629887,,,0,,America/Los_Angeles,,,1,
4210126,,,Willow Rd & Nash Ave,,37.4587231025061,-122.161999226712,,,0,,America/Los_Angeles,,,1,
4210127,,,Willow Rd & Newbridge St,,37.4731827062031,-122.154049234653,,,0,,America/Los_Angeles,,,1,
4210128,,,Willow Rd & Newbridge St,,37.4727316677709,-122.154691540389,,,0,,America/Los_Angeles,,,1,
4210129,,,Ivy Dr & Willow Rd,,37.4761941415346,-122.153278031932,,,0,,America/Los_Angeles,,,1,
4210130,,,Ivy Dr & Willow Rd,,37.475997984082,-122.153051862494,,,0,,America/Los_Angeles,,,1,
4210131,,,Ivy Dr & Sevier Ave,,37.4761583730524,-122.156276201046,,,0,,America/Los_Angeles,,,1,
4210132,,,Ivy Dr & Sevier Ave,,37.4758977486078,-122.156636433621,,,0,,America/Los_Angeles,,,1,
4210133,,,Chilco St & Hamilton Ave,,37.4781489834157,-122.160898533852,,,0,,America/Los_Angeles,,,1,
4210134,,,Chilco St & Hamilton Ave,,37.4783532771237,-122.161114867385,,,0,,America/Los_Angeles,,,1,
4210135,,,Terminal Ave & Modoc Ave,,37.4784713439047,-122.163996144498,,,0,,America/Los_Angeles,,,1,
4210136,,,Terminal Ave & Modoc Ave,,37.4786352354439,-122.163674137822,,,0,,America/Los_Angeles,,,1,
4210137,,,Menlo Park Caltrain (Marsh Rd. Shuttle Stop),,37.454419,-122.182267,,https://www.smctd.com/shuttles,0,,America/Los_Angeles,,,0,
4210138,,,3760 Haven (Quicken),,37.486099,-122.179652,,https://www.smctd.com/shuttles,0,,America/Los_Angeles,,,0,
4210139,,,3639 Haven (Anton Menlo Park),,37.486494,-122.184568,,https://www.smctd.com/shuttles,0,,America/Los_Angeles,,,0,
4210140,,,3641 Haven (Elan Menlo Park),,37.48559,-122.183499,,https://www.smctd.com/shuttles,0,,America/Los_Angeles,,,0,
4210141,,,Constitution Dr & Chilco St,,37.482246,-122.168318,,https://www.smctd.com/shuttles,0,,America/Los_Angeles,,,1,
4210142,,,180 Jefferson,,37.481434,-122.170473,,https://www.smctd.com/shuttles,0,,America/Los_Angeles,,,0,
4210143,,,TIDE Academy,,37.482629,-122.174055,,https://www.smctd.com/shuttles,0,,America/Los_Angeles,,,0,
4210144,,,149 Commonwealth,,37.481408,-122.174305,,https://www.smctd.com/shuttles,0,,America/Los_Angeles,,,0,
4210145,,,Chrysler Dr & Independence Dr,,37.482692,-122.175485,,https://www.smctd.com/shuttles,0,,America/Los_Angeles,,,1,
4210146,,,Constitution Dr & Chrysler Dr,,37.484283,-122.174794,,https://www.smctd.com/shuttles,0,,America/Los_Angeles,,,1,
4210148,,,Scott & Marsh Rd (PM Stop),,37.481131,-122.183554,,https://www.smctd.com/shuttles,0,,America/Los_Angeles,,,1,
4210149,,,Scott & Marsh Rd (AM Stop),,37.481325,-122.183336,,https://www.smctd.com/shuttles,0,,America/Los_Angeles,,,1,
4210150,,,4100 Bohannon (PM Stop),,37.480571,-122.178358,,https://www.smctd.com/shuttles,0,,America/Los_Angeles,,,0,
4210151,,,4100 Bohannon (AM Stop),,37.480655,-122.178163,,https://www.smctd.com/shuttles,0,,America/Los_Angeles,,,0,
4210152,,,Bohannon Dr & Campbell Ave (PM Stop),,37.478586,-122.182,,https://www.smctd.com/shuttles,0,,America/Los_Angeles,,,1,
4210153,,,Bohannon Dr & Campbell Ave (AM Stop),,37.478489,-122.181967,,https://www.smctd.com/shuttles,0,,America/Los_Angeles,,,1,
4210154,,,Post Office (PM Stop),,37.478594,-122.184769,,https://www.smctd.com/shuttles,0,,America/Los_Angeles,,,0,
4210155,,,Post Office (AM Stop),,37.478472,-122.184825,,https://www.smctd.com/shuttles,0,,America/Los_Angeles,,,0,
4210157,,,Adams Court (AM Stop),,37.478608,-122.143617,,https://www.smctd.com/shuttles,0,,America/Los_Angeles,,,0,
4210158,,,1505 O'Brien,,37.476812,-122.142496,,https://www.smctd.com/shuttles,0,,America/Los_Angeles,,,1,
4210159,,,1200 O'Brien (PM Stop),,37.476156,-122.146872,,https://www.smctd.com/shuttles,0,,America/Los_Angeles,,,0,
4210160,,,1200 O'Brien (AM Stop),,37.476028,-122.146789,,https://www.smctd.com/shuttles,0,,America/Los_Angeles,,,0,
4210161,,,O'Brien Dr & Willow Rd (PM Stop),Mid-Peninsula High School,37.475175,-122.152658,,https://www.smctd.com/shuttles,0,,America/Los_Angeles,,,1,
4210162,,,O'Brien Dr & Willow Rd (AM Stop),Mid-Peninsula High School,37.475044,-122.152639,,https://www.smctd.com/shuttles,0,,America/Los_Angeles,,,1,
4210163,346183,,Willow Rd & Coleman Ave,,37.461099,-122.160336,,,0,,America/Los_Angeles,,,1,
4210164,57762,,Willow Rd & Coleman Ave,,37.461188,-122.159987,,https://www.smctd.com/shuttles,0,,America/Los_Angeles,,,0,
4210165,,,Willow Rd & Clover Ln,,37.455206,-122.163555,,https://www.smctd.com/shuttles,0,,America/Los_Angeles,,,1,
4210166,,,Willow Rd & Clover Ln,,37.455338,-122.16375,,,0,,America/Los_Angeles,,,1,
4210167,,,Linfield Dr & Middlefield Rd (PM Stop),,37.456103,-122.167672,,https://www.smctd.com/shuttles,0,,America/Los_Angeles,,,1,
4210168,,,Linfield Dr & Middlefield Rd (AM Stop),,37.45604,-122.167464,,https://www.smctd.com/shuttles,0,,America/Los_Angeles,,,1,
4210169,,,Linfield Dr & Waverley St,,37.45394,-122.169373,,https://www.smctd.com/shuttles,0,,America/Los_Angeles,,,1,
4210170,,,Linfield Dr & Waverley St,,37.453863,-122.169134,,https://www.smctd.com/shuttles,0,,America/Los_Angeles,,,1,
4210171,,,Belle Haven Branch Library,,37.476161,-122.159753,,https://www.smctd.com/shuttles,0,,America/Los_Angeles,,,1,
4210172,,,Palo Alto Caltrain (Lytton & Alma),,37.444434,-122.164962,,https://www.smctd.com/shuttles,0,,America/Los_Angeles,,,1,
4210173,,,University/Partridge Ave.,,37.44527,-122.178508,,https://www.smctd.com/shuttles,0,,America/Los_Angeles,,,0,
4210174,,,Stanford Medical Center (Welch/Blake Wilbur Dr),,37.436791,-122.176984,,https://www.smctd.com/shuttles,0,,America/Los_Angeles,,,1,
4210175,,,Menlo Commons,,37.427023,-122.194192,,https://www.smctd.com/shuttles,0,,America/Los_Angeles,,,0,
4210176,,,Sharon Heights Shopping Center,,37.423779,-122.196904,,https://www.smctd.com/shuttles,0,,America/Los_Angeles,,,1,
4210177,,,Stanford Medical Center (900 Welch Rd.),,37.436499,-122.177706,,https://www.smctd.com/shuttles,0,,America/Los_Angeles,,,0,
4210178,,,Nordstrom / Crate & Barrel,,37.439287,-122.172941,,https://www.smctd.com/shuttles,0,,America/Los_Angeles,,,0,
4210179,,,Stanford Shopping Center,,37.441936,-122.171194,,https://www.smctd.com/shuttles,0,,America/Los_Angeles,,,0,
4210180,,,Hoover Pavilion,,37.442191,-122.169025,,https://www.smctd.com/shuttles,0,,America/Los_Angeles,,,0,
4210181,,,Palo Alto Medical Foundation,,37.439946,-122.161388,,https://www.smctd.com/shuttles,0,,America/Los_Angeles,,,0,
4210182,,,Partridge/Kennedy,,37.446631,-122.177067,,https://www.smctd.com/shuttles,0,,America/Los_Angeles,,,1,
4210183,,,Little House Recreation Center,,37.448662,-122.180968,,https://www.smctd.com/shuttles,0,,America/Los_Angeles,,,0,
4210184,,,Safeway (El Camino Real/Middle Ave),,37.450601,-122.178753,,https://www.smctd.com/shuttles,0,,America/Los_Angeles,,,0,
4210185,,,Santa Cruz & Crane,,37.450954,-122.185198,,https://www.smctd.com/shuttles,0,,America/Los_Angeles,,,1,
4210186,,,Santa Cruz & Chestnut,,37.451584,-122.184485,,https://www.smctd.com/shuttles,0,,America/Los_Angeles,,,1,
4210187,,,Crane Place,,37.453076,-122.188692,,https://www.smctd.com/shuttles,0,,America/Los_Angeles,,,1,
4210188,,,Crane Place,,37.452986,-122.188761,,https://www.smctd.com/shuttles,0,,America/Los_Angeles,,,1,
4210189,,,Middlefield & Oak Grove Ave,,37.461617,-122.178098,,https://www.smctd.com/shuttles,0,,America/Los_Angeles,,,1,
4210190,,,Middlefield & Oak Grove Ave,,37.462358,-122.179305,,https://www.smctd.com/shuttles,0,,America/Los_Angeles,,,1,
4210191,,,Menlo Park Library (Senior Center),,37.453608,-122.178747,,https://www.smctd.com/shuttles,0,,America/Los_Angeles,,,0,
4210192,,,Menlo Medical Clinic,,37.4561008538906,-122.168489480272,,,0,,America/Los_Angeles,,,0,
4210193,,,V.A. Medical Center,,37.465118,-122.158481,,https://www.smctd.com/shuttles,0,,America/Los_Angeles,,,0,
4210194,,,Belle Haven Branch Library,,37.476115,-122.15986,,https://www.smctd.com/shuttles,0,,America/Los_Angeles,,,1,
4210195,,,Terminal Ave & Del Norte Ave,,37.478291,-122.16692,,https://www.smctd.com/shuttles,0,,America/Los_Angeles,,,0,
4210196,,,Menlo Park Caltrain (Willow Rd. Shuttle Stop),,37.454804,-122.182695,,https://www.smctd.com/shuttles,0,,America/Los_Angeles,,,0,
4210197,,,Carter/Saddleback Dr.,,37.7068783749556,-122.424741411536,,https://www.smctd.com/shuttles,0,,America/Los_Angeles,,,0,
4210198,,,Rio Verde/Partridge St.,,37.7037294258427,-122.417328412402,,https://www.smctd.com/shuttles,0,,America/Los_Angeles,,,0,
4210199,,,Schwerin/Otillia St.,,37.7045865550328,-122.414006527468,,https://www.smctd.com/shuttles,0,,America/Los_Angeles,,,0,
4210200,,,Martin/Schwerin St.,,37.7011845511713,-122.415735460818,,https://www.smctd.com/shuttles,0,,America/Los_Angeles,,,0,
4210201,,,Bay Ridge/Accacia St.,,37.6999251263845,-122.417804105087,,https://www.smctd.com/shuttles,0,,America/Los_Angeles,,,0,
4210202,,,Linda Vista/Jacqueline Ln,,37.6991710997624,-122.414349287529,,https://www.smctd.com/shuttles,0,,America/Los_Angeles,,,0,
4210203,,,Balboa Park BART (MUNI),,37.7211495911134,-122.447317366763,,,0,,America/Los_Angeles,,,0,
4210204,,,Walgreens (998 Geneva) - Eastbound,,37.7156431968719,-122.439658613033,,https://www.smctd.com/shuttles,0,,America/Los_Angeles,,,0,
4210205,,,Mission/Wellington,,37.7057768225387,-122.46134898047,,,0,,America/Los_Angeles,,,0,
4210206,,,Daly City BART,,37.70598487958756,-122.4695203565133,,https://commute.org/shuttles/,0,,America/Los_Angeles,,,1,
4210207,,,North Peninsula Food Pantry (San Jose/Bepler),,37.7061081538376,-122.46157173294,,,0,,America/Los_Angeles,,,0,
4210208,,,Mission Safeway,,37.7193066338896,-122.439066445384,,,0,,America/Los_Angeles,,,0,
4210209,,,Walgreens (965 Geneva) - Westbound,,37.7157471423107,-122.439308026329,,https://www.smctd.com/shuttles,0,,America/Los_Angeles,,,0,
4210210,,,Bayshore Community Center,,37.7019298636626,-122.41905011271,,https://www.smctd.com/shuttles,0,,America/Los_Angeles,,,0,
4210211,,,7 Mile House (Bayshore/Geneva),,37.7039266260517,-122.407556187582,,https://www.smctd.com/shuttles,0,,America/Los_Angeles,,,0,
4210390,,,Skyline College - South Bus Stop,,37.62940600876435,-122.4664562532568,,https://www.smctd.com/shuttles,0,,America/Los_Angeles,,,1,
4210391,,,Skyline College - North Drop-off Loop,,37.631054274485024,-122.46730356776013,,https://www.smctd.com/shuttles,0,,America/Los_Angeles,,,1,
4226626,,,O'Brien & Kelly (IB),,37.474783,-122.149922,,https://smctd.com/shuttles,0,,America/Los_Angeles,,,1,
4226627,,,O'Brien & Kelly (OB),,37.474591,-122.149571,,https://smctd.com/shuttles/,0,,America/Los_Angeles,,,1,
4226628,,,1555 O'Brien,,37.478253969633286,-122.14127489034692,,https://smctd.com/shuttles,0,,America/Los_Angeles,,,1,
4242117,,,1149 Chess Drive,,37.567712,-122.272744,,https://commute.org/shuttles/,0,,America/Los_Angeles,,,1,
4242118,,,Cul-de-Sac (4000/4001 E. 3rd Ave.),,37.571264,-122.267805,,https://commute.org/shuttles/,0,,America/Los_Angeles,,,1,
4242119,,,378 Vintage Park Dr (PM Only),,37.563611,-122.278345,,https://commute.org/shuttles/,0,,America/Los_Angeles,,,1,
4243136,,,Bridgepointe Pkwy & Chess Dr (PM Only),,37.561429,-122.282549,,https://commute.org/shuttles/,0,,America/Los_Angeles,,,0,
